uid,name,type,information,lng,lat,time_start,time_end
1,富岡,加油站,(089)280382,121.177029,22.778749,0,23
2,北基日盛,加油站,(089)331671,121.149405,22.751844,0,23
3,久井建成,加油站,(04)22877416,120.675315,24.126285,0,23
4,中潭,加油站,(049)2914170,120.935695,23.965226,0,23
5,博愛,加油站,(049)2336084,120.671006,23.988424,0,23
6,信興,加油站,(04)8812736,120.491459,23.954813,0,23
7,楠埔,加油站,(049)2552846,120.735473,23.983449,0,23
8,洽維,加油站,(04)26317135,120.581641,24.21122,0,23
9,重光,加油站,(04)23020562,120.657517,24.146861,0,23
10,員村(田中),加油站,(04)8748115,120.587627,23.872608,0,23
11,中宏,加油站,(049)2569919,120.707428,23.97796,0,23
12,饒明,加油站,(04)8336710,120.576174,23.941968,0,23
13,進化北路,加油站,(04)22341929,120.681876,24.162992,0,23
14,日茂,加油站,(04)8296981,120.522664,23.949734,0,23
15,台大豐原,加油站,(04)25121770,120.721309,24.272264,0,23
16,勝中,加油站,(04)7860888,120.544696,24.021144,0,23
17,忠明圓環,加油站,(04)23252807,120.658914,24.156271,0,23
18,清泉,加油站,(04)26153676,120.602283,24.248901,0,23
19,新田,加油站,(04)25375000,120.723047,24.213793,0,23
20,正豪,加油站,(04)22632300,120.655334,24.115423,0,23
21,新平,加油站,(04)22758731,120.715922,24.1336399,0,23
22,東虹,加油站,(04)22124320,120.696402,24.135166,0,23
23,彰鹿,加油站,(04)7766333,120.473741,24.048845,0,23
24,柑林,加油站,(049)2722768,120.840701,24.028043,0,23
25,神崗,加油站,(04)25610541,120.671138,24.256277,0,23
26,甲東,加油站,(04)26884227,120.638455,24.341691,0,23
27,員村和美,加油站,(04)7553433,120.517992,24.10251,0,23
28,豐源,加油站,(04)25313658,120.710869,24.237368,0,23
29,東大,加油站,(04)23599998,120.601051,24.182731,0,23
30,金忠,加油站,(04)26323127,120.580831,24.1984,0,23
31,自由,加油站,(04)22122780,120.701413,24.142645,0,23
32,五權路,加油站,(04)23755291,120.667027,24.132993,0,23
33,河南路,加油站,(04)27073666,120.645289,24.172045,0,23
34,明潭,加油站,(049)2777985,120.850446,23.811246,0,23
35,北基雅潭,加油站,(04)25313100,120.694374,24.215726,0,23
36,東湖,加油站,(04)24951468,120.697184,24.083249,0,23
37,水湳,加油站,(04)22911146,120.665253,24.1838839,0,23
38,新林,加油站,(049)2307084,120.680016,23.9751739,0,23
39,春社,加油站,(04)23825338,120.6144593,24.1389953,0,23
40,永慶,加油站,(04)7623179,120.529273,24.08132,0,23
41,永春,加油站,(04)23865966,120.61466,24.139346,0,23
42,萬和,加油站,(04)24793637,120.630042,24.123068,0,23
43,成功路,加油站,(049)2338634,120.684664,23.9888709,0,23
44,太原,加油站,(04)22315627,120.694396,24.1648329,0,23
45,社口,加油站,(049)2522699,120.630655,24.015509,0,23
46,北基南屯,加油站,(04)23502626,120.6019555,24.160817,0,23
47,中清站,加油站,(04)24258318,120.722355,24.134202,0,23
48,總興,加油站,(04)22625727,120.661785,24.119764,0,23
49,寶成,加油站,(04)26651985,120.564995,24.240581,0,23
50,真工草屯,加油站,(049)2334733,120.682703,23.96987,0,23
51,北永靖,加油站,(04)8239726,120.556229,23.936325,0,23
52,員村社頭,加油站,(04)8727677,120.582917,23.909075,0,23
53,大峰,加油站,(04)24937297,120.687647,24.085211,0,23
54,大翔,加油站,(04)8282827,120.554116,23.953935,0,23
55,瑞豐,加油站,(04)25253797,120.699148,24.248779,0,23
56,陞泰,加油站,(049)2737711,120.709493,23.832836,0,23
57,北堤,加油站,(04)26260700,120.542878,24.290993,0,23
58,健行,加油站,(04)22068998,120.675545,24.159534,0,23
59,順天,加油站,(04)26802301,120.617394,24.342209,0,23
60,彰南路,加油站,(049)2738311,120.693088,23.8641391,0,23
61,明維,加油站,(04)24935936,120.689235,24.076451,0,23
62,巨業,加油站,(04)26627299,120.564587,24.240254,0,23
63,勝美,加油站,(04)7699788,120.508207,24.04643,0,23
64,南北通,加油站,(04)24259911,120.670491,24.201689,0,23
65,員彰,加油站,(04)7880112,120.552946,24.01032,0,23
66,德芳,加油站,(04)24834118,120.686939,24.102284,0,23
67,南屯交流道,加油站,(04)23870798,120.622534,24.150435,0,23
68,樹德,加油站,(04)23955685,120.712484,24.157674,0,23
69,安泰,加油站,(04)24210180,120.686515,24.194789,0,23
70,員村中清路,加油站,(04)24263488,120.655214,24.200103,0,23
71,金牌,加油站,(04)8231397,120.552539,23.924547,0,23
72,長安,加油站,(04)24632260,120.623156,24.192778,0,23
73,森竹,加油站,(049)2631616,120.696257,23.762434,0,23
74,光陽,加油站,(04)25583551,120.72251,24.301807,0,23
75,鴻陞,加油站,(04)25358576,120.686343,24.205466,0,23
76,中興,加油站,(049)2392929,120.67307,23.9562893,0,23
77,國祥,加油站,(04)26936989,120.574664,24.119709,0,23
78,安祥,加油站,(04)22548448,120.628193,24.162593,0,23
79,加得利,加油站,(04)22298828,120.675786,24.142167,0,23
80,北基世貿,加油站,(04)24653499,120.618553,24.187968,0,23
81,台糖儒林,加油站,(04)8964145,120.37466,23.903195,0,23
82,加福,加油站,(04)7330577,120.54218,24.095105,0,23
83,光凰,加油站,(04)27067358,120.632442,24.180275,0,23
84,大屯,加油站,(04)24078686,120.655873,24.087902,0,23
85,好又多,加油站,(049)2318936,120.6763747,24.0047048,0,23
86,英才,加油站,(04)22028718,120.676615,24.154987,0,23
87,烏日溪南,加油站,(04)23355511,120.6475845,24.0815983,0,23
88,埔榮,加油站,(049)2900296,120.993308,23.979097,0,23
89,建發,加油站,(04)26570938,120.540233,24.259906,0,23
90,山隆沙鹿,加油站,(04)26366189,120.556793,24.212859,0,23
91,中村,加油站,(04)23812919,120.630017,24.147042,0,23
92,詠安,加油站,(04)26111001,120.602143,24.310852,0,23
93,員村員集路,加油站,(04)8736000,120.58715,23.879922,0,23
94,員村二水,加油站,(04)8760505,120.602873,23.833334,0,23
95,永村田尾,加油站,(04)8835656,120.524826,23.887113,0,23
96,永村員林,加油站,(04)8390666,120.586329,23.955538,0,23
97,文華,加油站,(04)23156811,120.659827,24.171638,0,23
98,信毅,加油站,(04)22399561,120.719721,24.179429,0,23
99,永勝,加油站,(04)7611897,120.531929,24.074228,0,23
100,平和,加油站,(04)8612002,120.481897,23.956864,0,23
101,建發科雅,加油站,(04)25690268,120.637093,24.234129,0,23
102,楓騰,加油站,(04)25671618,120.662225,24.232694,0,23
103,五張犁,加油站,(04)23365858,120.648272,24.093284,0,23
104,霧峰交流道加油站,加油站,(04)23301032,120.695613,24.053249,0,23
105,山大王直營,加油站,(049)2988688,120.965563,23.963411,0,23
106,北基中清交流道,加油站,(04)25608150,120.649576,24.214268,0,23
107,驛田加油站,加油站,(049)2981899,120.965585,23.974176,0,23
108,新富,加油站,(04)23812317,120.622764,24.145775,0,23
109,陸海彰化加油加氣,加油站,(04)7618438,120.52025,24.063354,0,23
110,樹德公園,加油站,(04)22651345,120.652816,24.117977,0,23
111,智弘,加油站,(04)22805919,120.689968,24.1319242,0,23
112,山隆北屯,加油站,(04)22334437,120.6938084,24.1645968,0,23
113,山隆文心,加油站,(04)22412981,120.6938842,24.1714086,0,23
114,群邦,加油站,(04)8236196,120.5425797,23.9100855,0,23
115,元斗(北斗),加油站,(04)8877116,120.5141349,23.8703264,0,23
116,裕田國際,加油站,(049)2996073,120.9538174,23.9700046,0,23
117,沙鹿交流道,加油站,(04)26651756,120.575391,24.247317,0,23
118,圓環東路,加油站,(04)25132472,120.730085,24.254966,0,23
119,親親,加油站,(04)22320181,120.691563,24.160479,0,23
120,鎮南,加油站,(04)26366929,120.563782,24.232833,0,23
121,上嘉霧峰,加油站,(04)23397756,120.696369,24.069697,0,23
122,員集,加油站,(04)8321018,120.576032,23.946917,0,23
123,黎明路,加油站,(04)24790100,120.626294,24.114349,0,23
124,順勢,加油站,(04)25248488,120.747771,24.266352,0,23
125,山隆五權,加油站,(04)22027088,120.672026,24.146558,0,23
126,梅川東路,加油站,(04)22462855,120.682137,24.17897,0,23
127,東虹崇德,加油站,(04)22361605,120.685094,24.168952,0,23
128,東閔路,加油站,(049)2393286,120.680293,23.954977,0,23
129,溪南東站,加油站,(04)23357711,120.6478584,24.0772085,0,23
130,台大沙鹿,加油站,(04)26656068,120.582923,24.249704,0,23
131,山隆大雅,加油站,(04)25689565,120.641266,24.229878,0,23
132,山隆中興,加油站,(049)2371040,120.675445,23.955666,0,23
133,巨大,加油站,(049)2917859,120.941574,23.956293,0,23
134,山隆大肚,加油站,(04)26997315,120.543392,24.159705,0,23
135,中庄,加油站,(04)7377776,120.566347,24.089665,0,23
136,興安路,加油站,(04)22331970,120.694079,24.170925,0,23
137,彰秀,加油站,(04)7684999,120.504393,24.041256,0,23
138,豐樂,加油站,(04)24223929,120.686271,24.194595,0,23
139,草溪路,加油站,(049)2312170,120.672294,23.958631,0,23
140,彰工,加油站,(04)7780988,120.422323,24.075002,0,23
141,頂番婆,加油站,(04)7715347,120.485231,24.084591,0,23
142,元寶,加油站,(04)25603189,120.66885,24.214502,0,23
143,新庄,加油站,(04)8757168,120.596629,23.856331,0,23
144,恩光中清交流道,加油站,(04)24267111,120.656975,24.200714,0,23
145,福雅加油站,加油站,(04)24635458,120.628945,24.205742,0,23
146,建發龍井交流道,加油站,(04)26314648,120.573525,24.185554,0,23
147,豐勢交流道,加油站,(04)25271280,120.7478145,24.269656,0,23
148,明德195,加油站,(04)25723877,120.7719302,24.2748584,0,23
149,建發沙鹿,加油站,(04)26620955,120.6736482,24.1477358,0,23
150,環中東路,加油站,(04)25368145,120.7073061,24.2008079,0,23
151,八堵加油加氣站,加油站,(02)24560524,121.7258333,25.10416667,0,23
152,成功一路站,加油站,(02)24316683,121.7375,25.12694444,0,23
153,安樂站,加油站,(02)24311788,121.7188889,25.12638889,0,23
154,碇內站,加油站,(02)24577214,121.7486111,25.09833333,0,23
155,保長坑站,加油站,(02)86485318,121.6741667,25.07444444,0,23
156,東明路站,加油站,(02)24660611,121.7588889,25.12805556,0,23
157,中崙站,加油站,(02)27712548,121.5397222,25.04638889,0,23
158,三重重新路站,加油站,(02)29953683,121.4725,25.04694444,0,23
159,北投站,加油站,(02)28201203,121.5022222,25.11916667,0,23
160,基隆路站,加油站,(02)27383992,121.5558333,25.02777778,0,23
161,汐止站,加油站,(02)26412246,121.6394444,25.06,0,23
162,社子站,加油站,(02)28122647,121.5116667,25.085,0,23
163,民權西路站,加油站,(02)25575809,121.5141667,25.06277778,0,23
164,菜寮站,加油站,(02)29843153,121.4897222,25.05888889,0,23
165,福林站 ,加油站,(02)28812420,121.5275,25.0925,0,23
166,中央北路站,加油站,(02)28913744,121.4661111,25.12694444,0,23
167,寶橋站,加油站,(02)29111965,121.5491667,24.9775,0,23
168,龍安站,加油站,(02)23631735,121.5352778,25.02583333,0,23
169,百齡四路加油加氣站,加油站,(02)28201427,121.5111111,25.10805556,0,23
170,忠孝東路站,加油站,(02)27622418,121.5669444,25.04138889,0,23
171,內湖站,加油站,(02)27920678,121.5838889,25.06861111,0,23
172,八里站,加油站,(02)26104191,121.4230556,25.15888889,0,23
173,新莊站,加油站,(02)29965736,121.4452778,25.03472222,0,23
174,木柵站,加油站,(02)29392990,121.5641667,24.98833333,0,23
175,萬隆站,加油站,(02)29312829,121.5394444,25.00444444,0,23
176,中和站,加油站,(02)22493364,121.5077778,24.99944444,0,23
177,淡水站,加油站,(02)26212343,121.4455556,25.16861111,0,23
178,陽明山站,加油站,(02)28616052,121.5458333,25.13555556,0,23
179,林口站,加油站,(02)26015017,121.3969444,25.07777778,0,23
180,板橋民族路站,加油站,(02)29536247,121.4636111,25.00916667,0,23
181,南港站,加油站,(02)27822408,121.6044444,25.05416667,0,23
182,蘆洲站,加油站,(02)22812333,121.4733333,25.08527778,0,23
183,環河南路站,加油站,(02)23040528,121.4922222,25.03277778,0,23
184,三峽站,加油站,(02)26711123,121.3777778,24.93083333,0,23
185,鶯歌站,加油站,(02)26792944,121.3522222,24.95055556,0,23
186,新店北新路站,加油站,(02)29180305,121.5419444,24.96861111,0,23
187,莒光路站,加油站,(02)23028385,121.5072222,25.03138889,0,23
188,泰新站,加油站,(02)29094220,121.4388889,25.05138889,0,23
189,樹林站,加油站,(02)26812405,121.43,24.99944444,0,23
190,信義路站,加油站,(02)27081235,121.5555556,25.03305556,0,23
191,汀州路站,加油站,(02)23655595,121.5258333,25.02055556,0,23
192,民生東路站,加油站,(02)27671664,121.5638889,25.05944444,0,23
193,松山路站,加油站,(02)27297328,121.5775,25.03972222,0,23
194,文林路站,加油站,(02)28817934,121.5261111,25.0875,0,23
195,富陽街站,加油站,(02)27324229,121.5569444,25.01916667,0,23
196,永和永利路站,加油站,(02)29212541,121.5197222,25.005,0,23
197,蘆洲中山二路站,加油站,(02)22859867,121.4688889,25.07722222,0,23
198,大直站,加油站,(02)25320154,121.5505556,25.08444444,0,23
199,埔墘站,加油站,(02)29553436,121.4808333,25.01944444,0,23
200,內湖麗山街站,加油站,(02)26577339,121.5711111,25.08138889,0,23
201,淡海新市鎮站,加油站,(02)26228923,121.4461111,25.19194444,0,23
202,五股站,加油站,(02)22917541,121.4388889,25.0825,0,23
203,重陽路,加油站,(02)29718645,121.4925,25.07194444,0,23
204,新生北路站,加油站,(02)25815206,121.5280556,25.05666667,0,23
205,土城廣福路站,加油站,(02)89672580,121.4558333,24.99611111,0,23
206,土城站,加油站,(02)22602808,121.4408333,24.97416667,0,23
207,光復北路站,加油站,(02)27674900,121.5580556,25.04944444,0,23
208,大豐站,加油站,(02)29117053,121.5422222,24.97833333,0,23
209,林森北路站,加油站,(02)23410686,121.5238889,25.04583333,0,23
210,積穗站,加油站,(02)22219719,121.4836111,25.005,0,23
211,新店中正路站,加油站,(02)22192678,121.5341667,24.98055556,0,23
212,蘆洲三民路站,加油站,(02)22890485,121.4619444,25.09305556,0,23
213,濱江大直橋加油加氣站,加油站,(02)25177975,121.5519444,25.0725,0,23
214,武陵站,加油站,(03)3604492,121.2847222,24.98833333,0,23
215,中山路站,加油站,(03)3323504,121.3,24.99222222,0,23
216,迴龍站,加油站,(02)82093915,121.4,25.01611111,0,23
217,林口工三站,加油站,(03)3282232,121.3702778,25.06166667,0,23
218,龜山站,加油站,(03)3296223,121.3463889,25,0,23
219,蘆竹站,加油站,(03)3224714,121.2913889,25.04944444,0,23
220,三民路站,加油站,(03)3348425,121.3205556,24.99972222,0,23
221,春日路站,加油站,(03)3550381,121.3102778,25.01055556,0,23
222,平鎮站,加油站,(03)4934734,121.2105556,24.94805556,0,23
223,埔心站,加油站,(03)4826370,121.1747222,24.91194444,0,23
224,梅溪站,加油站,(03)4782632,121.1594444,24.90861111,0,23
225,新富站,加油站,(03)4573401,121.212726,24.927107,0,23
226,龍潭站,加油站,(03)4792614,121.2175,24.8675,0,23
227,介壽路站,加油站,(03)3615070,121.305,24.98027778,0,23
228,獅子王站,加油站,(03)4961585,121.1719444,24.92388889,0,23
229,中壢工業區加油站,加油站,(03)4521948,121.2380556,24.96527778,0,23
230,中壢工二站,加油站,(03)4620443,121.2472222,24.98,0,23
231,龍岡站,加油站,(03)4592501,121.23,24.94444444,0,23
232,天祥站,加油站,(03)2813170,121.1930556,24.95833333,0,23
233,大園民生站,加油站,(03)3856171,121.2022222,25.06444444,0,23
234,中壢服務區站,加油站,(03)4622920,121.2508333,25.00277778,0,23
235,廣福路站,加油站,(03)3636875,121.2660361,24.9562446,0,23
236,彰化站,加油站,(04)7222759,120.5536111,24.08472222,0,23
237,草屯站,加油站,(049)2362049,120.6866667,23.98472222,0,23
238,大甲站,加油站,(04)26872314,120.6319444,24.35472222,0,23
239,員林站,加油站,(04)8320294,120.5711111,23.97138889,0,23
240,二林站,加油站,(04)8960049,120.3736111,23.9025,0,23
241,東勢站,加油站,(04)25872454,120.8238889,24.26166667,0,23
242,大肚站,加油站,(04)26992502,120.5497222,24.14027778,0,23
243,南投三和站,加油站,(049)2227255,120.6908333,23.90638889,0,23
244,和美站,加油站,(04)7553024,120.5027778,24.10694444,0,23
245,進化路站,加油站,(04)22323873,120.6944444,24.16111111,0,23
246,沙鹿站,加油站,(04)26314644,120.5730556,24.23111111,0,23
247,台中工業區加油站,加油站,(04)23592968,120.6144444,24.18305556,0,23
248,社頭站,加油站,(04)8732534,120.5836111,23.90444444,0,23
249,埔里站,加油站,(049)2982403,120.9616667,23.96777778,0,23
250,溪湖站,加油站,(04)8852244,120.4797222,23.96777778,0,23
251,清水站,加油站,(04)26222464,120.5783333,24.27777778,0,23
252,彰化中山路站,加油站,(04)7224496,120.5441667,24.07472222,0,23
253,太平站,加油站,(04)22787508,120.7108333,24.12666667,0,23
254,青海路站,加油站,(04)27015054,120.6438889,24.17138889,0,23
255,文心路站,加油站,(04)23131239,120.6502778,24.16277778,0,23
256,向上路站,加油站,(04)23011800,120.6680556,24.14638889,0,23
257,大雅中清路站,加油站,(04)25664445,120.6483333,24.21777778,0,23
258,梧棲站,加油站,(04)26568415,120.5322222,24.26083333,0,23
259,后里站,加油站,(04)25562174,120.7238889,24.31555556,0,23
260,花壇站,加油站,(04)7862064,120.5413889,24.02444444,0,23
261,北斗站,加油站,(04)8882154,120.5197222,23.87694444,0,23
262,青島路站,加油站,(04)22925400,120.6744444,24.17444444,0,23
263,公益路站,加油站,(04)23269700,120.6527778,24.15111111,0,23
264,霧峰林森路站,加油站,(04)23339411,120.6947222,24.06138889,0,23
265,石岡豐勢路站,加油站,(04)25722984,120.7816667,24.27472222,0,23
266,員東路站,加油站,(04)8329743,120.5794444,23.95777778,0,23
267,五權西路站,加油站,(04)23893367,120.6411111,24.14138889,0,23
268,松竹路站,加油站,(04)22451915,120.6888889,24.18166667,0,23
269,南崗工業區站,加油站,(049)2251460,120.671934,23.922746,0,23
270,烏日站,加油站,(04)23381514,120.6341667,24.10611111,0,23
271,復興路站,加油站,(04)22617800,120.6691667,24.12888889,0,23
272,公園路站,加油站,(04)22237535,120.683344,24.146992,0,23
273,福興站,加油站,(04)7772534,120.445,24.04777778,0,23
274,豐原大湳站,加油站,(04)25225504,120.7205556,24.26305556,0,23
275,翁子站,加油站,(04)25225510,120.7347222,24.25972222,0,23
276,埔心站,加油站,(04)8293874,120.5538889,23.95333333,0,23
277,員林快速道站,加油站,(04)8398903,120.5630556,23.94638889,0,23
278,南崗三路站,加油站,(049)2254902,120.6652778,23.93722222,0,23
279,豐原交流道站,加油站,(04)25228204,120.6963889,24.24888889,0,23
280,員林交流道站,加油站,(04)8858502,120.5121394,23.95259603,0,23
281,清水服務區站,加油站,(04)26203281,120.6013889,24.28138889,0,23
282,南投服務區站,加油站,(049)2204987,120.7102778,23.89916667,0,23
283,竹東站,加油站,(03)5962447,121.0963889,24.7225,0,23
284,科學園區站,加油站,(03)5779157,121.0047222,24.77944444,0,23
285,民華站,加油站,(03)5326491,120.9786111,24.80666667,0,23
286,府前站,加油站,(03)5556350,121.015,24.82388889,0,23
287,光復路站,加油站,(03)5718604,120.99,24.80027778,0,23
288,關東橋站,加油站,(03)5772433,121.0130556,24.78472222,0,23
289,新豐站,加油站,(03)5592308,121,24.8725,0,23
290,光明站,加油站,(03)5716471,121.0041667,24.79111111,0,23
291,東林路站,加油站,(03)5957003,121.0919444,24.7375,0,23
292,北大路站,加油站,(03)5227664,120.9608333,24.80527778,0,23
293,通利站,加油站,(037)764736,120.6927778,24.49805556,0,23
294,中苗站,加油站,(037)326764,120.8216667,24.56,0,23
295,中華路站,加油站,(037)266431,120.8247222,24.57083333,0,23
296,公館站,加油站,(037)222834,120.825,24.51166667,0,23
297,苑裡站,加油站,(037)866747,120.6497222,24.43916667,0,23
298,頭份站,加油站,(037)663242,120.9125,24.69083333,0,23
299,中正路站,加油站,(037)463428,120.8722222,24.68361111,0,23
300,頭屋站,加油站,(037)252723,120.8566667,24.57777778,0,23
301,苗栗交流道站,加油站,(037)236095,120.821011,24.521247,0,23
302,信義路站,加油站,(05)2359381,120.4288889,23.46888889,0,23
303,吳鳳路站,加油站,(05)2224070,120.4541667,23.46916667,0,23
304,斗六南環路站,加油站,(05)5339692,120.5575,23.7125,0,23
305,斗南站,加油站,(05)5972320,120.4811111,23.68,0,23
306,義和站,加油站,(05)5844090,120.4788889,23.77555556,0,23
307,新港站,加油站,(05)3742054,120.3469444,23.55083333,0,23
308,虎尾新生路站,加油站,(05)6322812,120.4361111,23.70722222,0,23
309,竹崎站,加油站,(05)2611714,120.5477778,23.51583333,0,23
310,新營服務區北上站,加油站,(06)6378280,120.3133333,23.34,0,23
311,新營服務區南下站,加油站,(06)6323381,120.310841,23.33956,0,23
312,斗南交流道站,加油站,(05)5954474,120.4755556,23.69333333,0,23
313,新營交流道站,加油站,(06)6561512,120.2938889,23.30666667,0,23
314,東山服務區站,加油站,(06)6234287,120.398987,23.284977,0,23
315,大義路站,加油站,(05)2300875,120.4725,23.45888889,0,23
316,雅虎站,加油站,(05)5514796,120.5236111,23.72666667,0,23
317,古坑服務區站,加油站,(05)5827210,120.545,23.61,0,23
318,嘉港站,加油站,(05)2382012,120.41,23.48861111,0,23
319,公園路站,加油站,(06)2517454,120.2147222,23.01722222,0,23
320,前鋒站,加油站,(06)2082162,120.2152778,23.00472222,0,23
321,大灣站,加油站,(06)2724010,120.2488889,22.99833333,0,23
322,大湖站,加油站,(07)6931793,120.2519444,22.87861111,0,23
323,永華路東站,加油站,(06)2992048,120.1808333,22.99,0,23
324,中華西路南站,加油站,(06)2970350,120.1869444,22.98722222,0,23
325,文賢路站,加油站,(06)2591749,120.1933333,23.00444444,0,23
326,阿蓮站,加油站,(07)6312139,120.3263889,22.87361111,0,23
327,仁德站,加油站,(06)2794451,120.2544444,22.97111111,0,23
328,成功路站,加油站,(06)2222894,120.2094444,22.99805556,0,23
329,大同路站,加油站,(06)2153503,120.2136111,22.97527778,0,23
330,安平工業區站,加油站,(06)2654022,120.1833333,22.97305556,0,23
331,安順站,加油站,(06)2569187,120.1955556,23.04305556,0,23
332,中油安定交流道站,加油站,(06)5921844,120.2352778,23.11333333,0,23
333,仁德服務區南下站,加油站,(06)3660758,120.2647222,22.90611111,0,23
334,仁德服務區北上站,加油站,(06)2782879,120.2663889,22.90638889,0,23
335,中油永交站,加油站,(06)2436250,120.2477778,23.04194444,0,23
336,關廟服務區南下站,加油站,(06)5552772,120.35081,22.92763,0,23
337,關廟服務區北上站,加油站,(06)5552826,120.35315,22.93044,0,23
338,建國二路站,加油站,(07)2383484,120.3108333,22.63777778,0,23
339,岡山站,加油站,(07)6252450,120.2977778,22.78222222,0,23
340,後勁站,加油站,(07)3613018,120.3097222,22.7163888,0,23
341,左營站,加油站,(07)5825621,120.2863889,22.67111111,0,23
342,中華三路站,加油站,(07)2851354,120.2955556,22.63055556,0,23
343,建工路站,加油站,(07)3832928,120.3247222,22.65027778,0,23
344,五甲站,加油站,(07)7460364,120.3547222,22.61833333,0,23
345,中正路站,加油站,(08)7364224,120.4947222,22.68555556,0,23
346,鳳松站,加油站,(07)7431562,120.3627778,22.63694444,0,23
347,潮州站,加油站,(08)7882044,120.54,22.55694444,0,23
348,東港站,加油站,(08)8322352,120.455,22.47166667,0,23
349,瑞豐站,加油站,(07)7610629,120.336653,22.604724,0,23
350,梓官站,加油站,(07)6173555,120.2625,22.76027778,0,23
351,民權路站,加油站,(07)3316290,120.3136111,22.60972222,0,23
352,里港站,加油站,(08)7752054,120.4936111,22.77222222,0,23
353,高鳳站,加油站,(07)7491901,120.3425,22.62833333,0,23
354,漁港路站,加油站,(07)8216516,120.3188889,22.57833333,0,23
355,覺民路站,加油站,(07)3869992,120.3344444,22.64083333,0,23
356,鼎山路站,加油站,(07)3839681,120.3219444,22.65722222,0,23
357,建國一路站,加油站,(07)7518715,120.33,22.63277778,0,23
358,復興路站,加油站,(08)7525421,120.4877778,22.66083333,0,23
359,新埤站,加油站,(08)7971017,120.5483333,22.46972222,0,23
360,仁武站,加油站,(07)3711361,120.3444444,22.70333333,0,23
361,南州交流道站,加油站,(08)8644993,120.5388889,22.49166667,0,23
362,楠梓交流道站,加油站,(07)3537642,120.3311111,22.72222222,0,23
363,南埔站,加油站,(03)8522853,121.5897222,23.96416667,0,23
364,北埔站,加油站,(03)8266825,121.6036111,24.03944444,0,23
365,中山路站,加油站,(03)8561117,121.595,23.99583333,0,23
366,羅東站,加油站,(03)9654651,121.769256,24.697584,0,23
367,宜蘭站,加油站,(03)9282621,121.756575,24.770564,0,23
368,員山站,加油站,(03)9223041,121.731031,24.747724,0,23
369,冬山站,加油站,(03)9591316,121.787001,24.641578,0,23
370,中山路站,加油站,(089)323132,121.1480556,22.75305556,0,23
371,卑南站,加油站,(089)222010,121.1266667,22.7775,0,23
372,車亭三義,加油站,(037)875000,120.759627,24.39039,0,23
373,長利,加油站,(037)689092,120.922219,24.703059,0,23
374,新發,加油站,(037)869628,120.647317,24.442302,0,23
375,必勝,加油站,(037)582611,120.906826,24.730465,0,23
376,和源,加油站,(037)252503,120.849008,24.574118,0,23
377,吉盛,加油站,(037)733377,120.780021,24.60122,0,23
378,銓豐,加油站,(037)230736,120.819241,24.526909,0,23
379,南北通,加油站,(037)765656,120.701093,24.496192,0,23
380,百盛,加油站,(037)630088,120.888974,24.694353,0,23
381,易鋐,加油站,(037)743500,120.665034,24.401522,0,23
382,竹苗,加油站,(037)672288,120.921424,24.715052,0,23
383,車亭頭份,加油站,(037)690611,120.924865,24.689146,0,23
384,台莊苗栗,加油站,(037)269448,120.824622,24.593347,0,23
385,苗交,加油站,(037)226399,120.819185,24.528153,0,23
386,車亭竹南,加油站,(037)472906,120.854896,24.672384,0,23
387,車亭竹南二,加油站,(037)468225,120.85448,24.672137,0,23
388,公園,加油站,(03)5610079,120.979887,24.803159,0,23
389,大橋,加油站,(03)5312536,120.995392,24.818435,0,23
390,民弘,加油站,(03)5312866,120.980829,24.812655,0,23
391,百祥,加油站,(03)5387876,120.92631,24.787003,0,23
392,北海,加油站,(03)5985001,121.023004,24.87576,0,23
393,佑順,加油站,(03)5517818,120.997184,24.825788,0,23
394,廣源,加油站,(03)5923038,121.076752,24.77084,0,23
395,信政,加油站,(03)5928151,121.095145,24.752199,0,23
396,正塘,加油站,(03)5366523,120.92719,24.827236,0,23
397,聖豐,加油站,(03)5986716,121.018131,24.875187,0,23
398,永富,加油站,(03)5330892,120.955647,24.818139,0,23
399,好客,加油站,(03)5928981,121.073772,24.775377,0,23
400,昇冠,加油站,(03)5348887,120.967469,24.813649,0,23
401,新崎,加油站,(03)6993085,121.041568,24.891161,0,23
402,六家,加油站,(03)5509791,121.023116,24.813467,0,23
403,尚隆,加油站,(03)5365678,120.929287,24.839504,0,23
404,新慰,加油站,(03)5905772,121.011208,24.882922,0,23
405,茄苳,加油站,(03)5202858,120.954221,24.754494,0,23
406,昌隆,加油站,(03)5353556,120.980713,24.821192,0,23
407,台大,加油站,(03)5504424,121.032578,24.82526,0,23
408,公道五,加油站,(03)5166338,121.002419,24.801041,0,23
409,車容坊北興路,加油站,(03)5100875,121.094287,24.737643,0,23
410,昇隆,加油站,(03)5535656,120.985269,24.840863,0,23
411,成功路,加油站,(035)998989,121.0386613,24.8991651,0,23
412,永美,加油站,(05)6327947,120.409202,23.684667,0,23
413,南新,加油站,(05)2379628,120.386296,23.496084,0,23
414,南壇,加油站,(05)7812731,120.322969,23.560491,0,23
415,一品,加油站,(05)3692726,120.246861,23.434266,0,23
416,沿海,加油站,(05)7992675,120.162985,23.610148,0,23
417,民生,加油站,(05)2854046,120.432301,23.452312,0,23
418,泰鋒(朴子),加油站,(05)3702929,120.241001,23.457239,0,23
419,新生路,加油站,(05)2778220,120.456083,23.495458,0,23
420,台大,加油站,(06)6565000,120.293889,23.308471,0,23
421,車城,加油站,(05)5873838,120.468132,23.790575,0,23
422,日祥,加油站,(05)6936301,120.258314,23.741569,0,23
423,協同,加油站,(05)2130527,120.438209,23.528262,0,23
424,大華,加油站,(05)6360858,120.442806,23.715868,0,23
425,立正,加油站,(05)2133269,120.423415,23.522418,0,23
426,吉克(後壁),加油站,(06)6881297,120.377841,23.389452,0,23
427,蓮因,加油站,(06)6855659,120.412388,23.355662,0,23
428,中興路(嘉義市),加油站,(05)2363376,120.428309,23.476522,0,23
429,台糖北港,加油站,(05)7730233,120.29959,23.569514,0,23
430,湖子內路,加油站,(05)2833366,120.442261,23.453137,0,23
431,南亞民雄,加油站,(05)2133879,120.431414,23.513395,0,23
432,四湖(東站),加油站,(05)7876859,120.225575,23.636096,0,23
433,日升,加油站,(05)5222218,120.536802,23.672839,0,23
434,西螺服務區北上,加油站,(05)5882005,120.475219,23.792357,0,23
435,上井,加油站,(05)2202200,120.470495,23.524662,0,23
436,佳得美斗六,加油站,(05)5326779,120.54869,23.700307,0,23
437,佳得美石榴,加油站,(05)5326779,120.589103,23.72719,0,23
438,嘉峰,加油站,(05)2789508,120.470753,23.477723,0,23
439,嘉盈,加油站,(05)2391042,120.49894,23.445156,0,23
440,快速交流道,加油站,(05)2306899,120.436026,23.435661,0,23
441,嘉交,加油站,(05)2373211,120.403762,23.490151,0,23
442,中山高嘉義竹村,加油站,(05)2384033,120.398269,23.492276,0,23
443,李斯特,加油站,(05)6324281,120.460655,23.697178,0,23
444,山隆嘉豐,加油站,(06)6528797,120.2860699,23.3089335,0,23
445,明華,加油站,(05)2658360,120.4471919,23.6039806,0,23
446,嘉滿,加油站,(05)2377533,120.423054,23.48566,0,23
447,北基民雄,加油站,(05)2060727,120.4082173,23.5588168,0,23
448,世海,加油站,(05)2308888,120.4363631,23.4360481,0,23
449,忠孝路,加油站,(05)2211166,120.441055,23.518042,0,23
450,山隆民雄,加油站,(05)2260423,120.4263716,23.5500667,0,23
451,泉益,加油站,(02)24313103,121.725866,25.117622,0,23
452,北基基金,加油站,(02)24983603,121.649826,25.209412,0,23
453,瑞泉,加油站,(02)24960890,121.794734,25.110387,0,23
454,林長,加油站,(02)24966888,121.823495,25.121143,0,23
455,平安,加油站,(02)86486686,121.68296,25.072939,0,23
456,北基中和路,加油站,(02)24362770,121.722297,25.144793,0,23
457,北基基隆,加油站,(02)24365548,121.725972,25.14662,0,23
458,深澳,加油站,(02)24659668,121.779293,25.128651,0,23
459,大嘉好,加油站,(02)26364295,121.477692,25.259802,0,23
460,台莊基隆,加油站,(02)24263646,121.736232,25.152578,0,23
461,百福,加油站,(02)24519501,121.684786,25.082742,0,23
462,北基五堵交流道,加油站,(02)2451)8513,121.68346,25.075535,0,23
463,泉益大武崙,加油站,(02)24328766,121.699804,25.148646,0,23
464,柑園八堵,加油站,(02)24551468,121.7266837,25.1059116,0,23
465,豐富,加油站,(03)9887885,121.767441,24.8115961,0,23
466,金面,加油站,(03)9776509,121.7987519,24.8402157,0,23
467,新城,加油站,(03)9593701,121.8031969,24.624456,0,23
468,新馬,加油站,(03)9905601,121.833375,24.627137,0,23
469,金湧,加油站,(03)9387338,121.771834,24.7503597,0,23
470,金泉,加油站,(03)9880029,121.7868697,24.8371748,0,23
471,廣進,加油站,(03)9252958,121.7685764,24.724313,0,23
472,東寶,加油站,(03)9603995,121.7780295,24.6821801,0,23
473,南興,加油站,(03)9982383,121.7906866,24.4618976,0,23
474,功勞,加油站,(03)9306358,121.7817212,24.7704407,0,23
475,大埔,加油站,(03)9899521,121.717647,24.669902,0,23
476,山隆龍德,加油站,(03)9909633,121.831598,24.634281,0,23
477,山隆復興,加油站,(03)9544677,121.767011,24.686504,0,23
478,中森,加油站,(03)9280728,121.7592289,24.7796895,0,23
479,南聖湖,加油站,(03)9961111,121.8189124,24.6150917,0,23
480,永昇,加油站,(06)2354695,120.234501,22.99799,0,23
481,嘉仁,加油站,(06)2490866,120.2438945,22.9740182,0,23
482,永新,加油站,(06)2336911,120.28111,23.031834,0,23
483,永樺,加油站,(06)2842136,120.139699,23.053937,0,23
484,麻新,加油站,(06)5700308,120.229075,23.179718,0,23
485,大佳,加油站,(06)2399630,120.292333,22.967312,0,23
486,海寮,加油站,(06)5934180,120.210289,23.090841,0,23
487,土庫,加油站,(06)2737215,120.250323,22.991699,0,23
488,永康正大,加油站,(06)2423668,120.225736,23.030359,0,23
489,永康中山,加油站,(06)2030108,120.23753,23.016927,0,23
490,永康六甲頂,加油站,(06)2826379,120.216653,23.022138,0,23
491,新力,加油站,(06)3661536,120.2239694,22.9222237,0,23
492,大旺,加油站,(06)2396156,120.274108,22.969206,0,23
493,大關廟,加油站,(06)5966075,120.320027,22.974593,0,23
494,加泓,加油站,(06)2424576,120.243206,23.035406,0,23
495,甲上,加油站,(06)2559445,120.189851,23.054323,0,23
496,美吉,加油站,(06)2022123,120.23898,23.017215,0,23
497,億歸,加油站,(06)3303208,120.287763,22.974015,0,23
498,大崗山,加油站,(07)6321100,120.353885,22.874722,0,23
499,松建,加油站,(06)5834029,120.320274,23.126577,0,23
500,千越東門,加油站,(06)2363678,120.2295156,22.9815304,0,23
501,國賓,加油站,(06)7236995,120.188756,23.165397,0,23
502,大正,加油站,(06)3032006,120.2723079,22.9208549,0,23
503,千越中華北站,加油站,(06)3583186,120.186048,23.008071,0,23
504,千越開元站,加油站,(06)2381886,120.2240544,23.009869,0,23
505,民安海佃,加油站,(06)2554872,120.189643,23.034223,0,23
506,國賓七股,加油站,(06)7872589,120.131636,23.133493,0,23
507,茄萣仁愛,加油站,(07)6986836,120.186538,22.886346,0,23
508,千越路竹,加油站,(07)6938689,120.2504234,22.8801542,0,23
509,千越海佃站,加油站,(06)2560999,120.190222,23.030164,0,23
510,安定交流道,加油站,(06)5920365,120.235635,23.109967,0,23
511,千越西門站,加油站,(06)2516899,120.208594,23.011675,0,23
512,山隆安定,加油站,(06)5976971,120.249633,23.124288,0,23
513,大新,加油站,(06)5985758,120.295045,23.035748,0,23
514,走馬瀨,加油站,(06)5746452,120.434811,23.138319,0,23
515,瑞曜,加油站,(06)3027358,120.238795,23.017101,0,23
516,永大路,加油站,(06)2317309,120.262426,23.017795,0,23
517,台糖永安,加油站,(06)2432979,120.241344,23.049192,0,23
518,山隆高仁,加油站,(06)2782899,120.2738537,22.9200864,0,23
519,南昇,加油站,(06)2601157,120.2171499,22.9573313,0,23
520,興達港,加油站,(07)6991366,120.221462,22.8766809,0,23
521,山隆永康,加油站,(06)2818655,120.218728,23.023017,0,23
522,北基崑山站,加油站,(06)2721689,120.249594,22.998728,0,23
523,忠孝東路,加油站,(06)7215096,120.181425,23.163981,0,23
524,中正,加油站,(07)6317170,120.3212735,22.8803454,0,23
525,挑戰者公園南,加油站,(06)2208441,120.205711,23.001639,0,23
526,新厝亞東,加油站,(06)3311758,120.243019,22.989669,0,23
527,福昇,加油站,(07)6965672,120.2874931,22.8305168,0,23
528,北基太子,加油站,(06)2710618,120.2655658,22.9912387,0,23
529,大成,加油站,(06)5856776,120.3149512,23.1283833,0,23
530,永成路,加油站,(06)2629389,120.1956748,22.9565207,0,23
531,北基新市,加油站,(06)5893009,120.2905,23.0673,0,23
532,全聯麻豆,加油站,(06)5717585,120.2465306,23.1764773,0,23
533,北基永康,加油站,(06)2530938,120.2307448,23.0359448,0,23
534,民族,加油站,(07)3850731,120.315458,22.653318,0,23
535,大發,加油站,(08)8823817,120.713686,22.070133,0,23
536,博愛,加油站,(07)3229254,120.303119,22.65003,0,23
537,光華,加油站,(07)3336168,120.316726,22.61823,0,23
538,川流,加油站,(08)8666986,120.558517,22.447616,0,23
539,慶昌,加油站,(07)3638197,120.2901,22.71742,0,23
540,豐田,加油站,(08)7792998,120.540898,22.634731,0,23
541,天祥,加油站,(07)3472200,120.321352,22.666835,0,23
542,桂林,加油站,(07)7912420,120.358429,22.584558,0,23
543,高楠,加油站,(07)3416206,120.317283,22.671188,0,23
544,宏達,加油站,(07)3414698,120.319617,22.678412,0,23
545,源豐,加油站,(07)5577111,120.303675,22.668683,0,23
546,自由,加油站,(07)3863111,120.308574,22.652411,0,23
547,澄清湖,加油站,(07)3892166,120.340946,22.636675,0,23
548,大社,加油站,(07)3530343,120.3411747,22.73237,0,23
549,左新,加油站,(07)3453500,120.299356,22.676844,0,23
550,大昌路,加油站,(07)3920291,120.331797,22.647185,0,23
551,裕誠,加油站,(07)5563797,120.303712,22.665634,0,23
552,塩埕,加油站,(07)5337470,120.282709,22.630458,0,23
553,鳳仁,加油站,(07)3723933,120.34836,22.69497,0,23
554,千越,加油站,(08)7801936,120.531588,22.512973,0,23
555,德民,加油站,(07)3652329,120.29015,22.72114,0,23
556,昭明,加油站,(07)6452183,120.409733,22.53984,0,23
557,大潮州,加油站,(08)7896331,120.516475,22.574487,0,23
558,大來,加油站,(07)7024101,120.383078,22.636499,0,23
559,甲洲,加油站,(07)7669129,120.343381,22.602959,0,23
560,泓成,加油站,(07)7879020,120.402968,22.591286,0,23
561,永晉,加油站,(07)6434303,120.39863,22.495695,0,23
562,江山,加油站,(07)7017334,120.405576,22.640035,0,23
563,靖海,加油站,(07)3535657,120.35979,22.7306,0,23
564,樺興,加油站,(07)6911706,120.25137,22.80849,0,23
565,台糖國泰,加油站,(07)7552190,120.35355,22.615777,0,23
566,北屏東,加油站,(08)7362417,120.503285,22.693668,0,23
567,山隆高雄,加油站,(07)8716691,120.370174,22.529633,0,23
568,台糖建軍,加油站,(07)7534140,120.360332,22.598152,0,23
569,華友,加油站,(08)7627253,120.553759,22.695689,0,23
570,建元,加油站,(07)6163317,120.33258,22.78965,0,23
571,千越屏東建國,加油站,(08)7517890,120.469535,22.661284,0,23
572,千越太平,加油站,(08)7805666,120.533712,22.559615,0,23
573,千越東港,加油站,(08)8339686,120.463902,22.471893,0,23
574,永豐高雄,加油站,(07)7215215,120.333075,22.6083,0,23
575,大眾,加油站,(07)5370069,120.30189,22.619736,0,23
576,鎮海,加油站,(07)8318524,120.315353,22.590119,0,23
577,雄菱,加油站,(07)8115010,120.312783,22.580564,0,23
578,台糖南州,加油站,(08)8645415,120.538489,22.492287,0,23
579,雍東,加油站,(08)7237950,120.498833,22.666814,0,23
580,肯得力,加油站,(08)7627688,120.56463,22.699733,0,23
581,領航,加油站,(08)8899688,120.743402,22.024222,0,23
582,千越內埔,加油站,(08)7796565,120.546944,22.629614,0,23
583,千越枋寮,加油站,(08)8711212,120.596543,22.380211,0,23
584,千越麟洛,加油站,(08)7226565,120.51999,22.654819,0,23
585,高都,加油站,(07)8110200,120.328674,22.572167,0,23
586,新厝左營大路,加油站,(07)5850266,120.301449,22.696882,0,23
587,洋洋,加油站,(07)6611230,120.49655,22.88338,0,23
588,大富,加油站,(08)7763316,120.48094,22.573701,0,23
589,金民,加油站,(082)372758,118.334157,24.439283,0,23
590,日日春,加油站,(08)7722355,120.493739,22.768287,0,23
591,統精金門,加油站,(082)372909,118.325576,24.443525,0,23
592,山隆清溪,加油站,(08)7521685,120.473263,22.654057,0,23
593,上豐,加油站,(07)3452235,120.31072,22.671452,0,23
594,山隆中山,加油站,(08)8761533,120.653186,22.263626,0,23
595,一六八,加油站,(082)337888,118.405128,24.438666,0,23
596,千越武慶,加油站,(07)7235899,120.332329,22.616964,0,23
597,向陽,加油站,(07)6107628,120.26196,22.74531,0,23
598,楠都,加油站,(07)3559665,120.3302,22.72377,0,23
599,山隆岡山,加油站,(07)6163078,120.32417,22.78866,0,23
600,整樹長治,加油站,(08)7629300,120.56109,22.698268,0,23
601,連江縣馬祖油品供應有限公司-福澳,加油站,(0836)25343,119.943162,26.1598,0,23
602,千越梓官,加油站,(07)6195188,120.2635,22.74059,0,23
603,山隆永發,加油站,(07)6106682,120.24485,22.7925,0,23
604,千越海豐,加油站,(08)7653166,120.500665,22.697966,0,23
605,百達,加油站,(08)7798388,120.559577,22.608212,0,23
606,東龍,加油站,(08)8716096,120.588424,22.395104,0,23
607,千越仁美,加油站,(07)7332589,120.38017,22.65913,0,23
608,千越鳳頂,加油站,(07)7961788,120.358297,22.591273,0,23
609,新厝博愛,加油站,(07)5585266,120.303739,22.6551,0,23
610,昶豐,加油站,(08)8320288,120.469076,22.482597,0,23
611,金獅湖,加油站,(07)3425279,120.326365,22.669729,0,23
612,九大,加油站,(07)6519991,120.42543,22.65932,0,23
613,弘奇,加油站,(07)7030118,120.401865,22.63965,0,23
614,大屏東,加油站,(08)7510913,120.467813,22.655827,0,23
615,鳳榮,加油站,(07)7038452,120.383762,22.63601,0,23
616,沅成,加油站,(08)7880745,120.554069,22.561327,0,23
617,聖森路,加油站,(07)6213709,120.31232,22.79033,0,23
618,山隆苓雅,加油站,(07)7610048,120.336517,22.616557,0,23
619,鑫敏祥,加油站,(08)7720777,120.503171,22.782326,0,23
620,新厝,加油站,(07)7875506,120.411652,22.56102,0,23
621,新厝大發,加油站,(07)7878075,120.40733,22.581855,0,23
622,北基健民,加油站,(08)7523396,120.481126,22.6651552,0,23
623,金寧,加油站,(082)324849,118.337454,24.430081,0,23
624,新厝鳳林,加油站,(07)7812086,120.391661,22.612267,0,23
625,新厝高鳳,加油站,(07)7932588,120.371957,22.57752,0,23
626,新厝中安,加油站,(07)7922755,120.360635,22.585071,0,23
627,新厝自由,加油站,(07)3803366,120.308922,22.653516,0,23
628,新厝十全,加油站,(07)3223885,120.312585,22.64474,0,23
629,北基楓港,加油站,(08)8772177,120.687872,22.2058758,0,23
630,新厝明誠,加油站,(07)5555570,120.296533,22.660943,0,23
631,北基大立,加油站,(07)7151301,120.326431,22.617008,0,23
632,北基九如路,加油站,(07)3809312,120.318322,22.640203,0,23
633,新厝灣內,加油站,(07)3728082,120.35536,22.68705,0,23
634,新厝德中,加油站,(07)3011828,120.27673,22.72444,0,23
635,永晉潭頭,加油站,(07)6433066,120.401152,22.526304,0,23
636,千越鳳林,加油站,(07)7013934,120.374544,22.62255,0,23
637,桂華,加油站,(07)3416037,120.310493,22.68207,0,23
638,中崙,加油站,(07)7532979,120.355105,22.606803,0,23
639,華豐,加油站,(07)7245767,120.334711,22.602879,0,23
640,源興,加油站,(07)7539799,120.348984,22.60704,0,23
641,亞柏小港,加油站,(07)8133991,120.328202,22.56627,0,23
642,亞柏八卦寮,加油站,(07)3717900,120.32906,22.68167,0,23
643,亞柏新園,加油站,(08)8686812,120.4635212,22.547151,0,23
644,亞柏潮州,加油站,(08)7893983,120.5401691,22.5602056,0,23
645,亞柏仁武,加油站,(07)3711336,120.35911,22.70143,0,23
646,北基高旗,加油站,(07)7409408,120.370363,22.6364,0,23
647,屏東中山,加油站,(08)7338359,120.4843116,22.6834712,0,23
648,千越鳥松,加油站,(07)7319462,120.36513,22.65354,0,23
649,枋寮北,加油站,(08)8717158,120.5958,22.3835,0,23
650,凱旋,加油站,(07)8216871,120.318056,22.597062,0,23
651,大立鴻福,加油站,(082)337989,118.388235,24.443829,0,23
652,大順,加油站,(07)3960518,120.31862,22.654009,0,23
653,北基金獅,加油站,(07)3107389,120.321974,22.662996,0,23
654,金門,加油站,(082)372222,118.327308,24.435934,0,23
655,北基岡山,加油站,(07)6226798,120.29142,22.80249,0,23
656,岡山交流道,加油站,(07)6262188,120.31702,22.78711,0,23
657,屏東交流道,加油站,(08)7382999,120.5069761,22.6968343,0,23
658,大誠,加油站,(07)3661956,120.30343,22.72875,0,23
659,連江縣馬祖福澳漁港,加油站,(0836)25343,119.9443438,26.1580753,0,23
660,國園,加油站,(02)29800335,121.492975,25.062004,0,23
661,上群,加油站,(02)22927871,121.438043,25.077456,0,23
662,北基新海,加油站,(02)22568588,121.460509,25.024717,0,23
663,三鶯,加油站,(02)26731177,121.365216,24.939448,0,23
664,協記,加油站,(02)27915409,121.585,25.057,0,23
665,永和,加油站,(02)29281516,121.511772,25.004067,0,23
666,康寧,加油站,(02)26328788,121.608417,25.072558,0,23
667,連城,加油站,(02)22668911,121.473684,24.991134,0,23
668,獅子頭,加油站,(02)26183718,121.456454,25.120594,0,23
669,重陽橋,加油站,(02)28575135,121.493,25.089,0,23
670,世新,加油站,(02)29354466,121.542392,24.989423,0,23
671,安坑,加油站,(02)22114678,121.518724,24.974874,0,23
672,長安,加油站,(02)25671667,121.531234,25.048786,0,23
673,五工,加油站,(02)85215660,121.459029,25.063209,0,23
674,八仙,加油站,(02)26182297,121.455853,25.120419,0,23
675,柑園,加油站,(02)26803001,121.391652,24.962697,0,23
676,昇易,加油站,(02)22916276,121.437633,25.07775,0,23
677,明湖,加油站,(02)26951863,121.634138,25.068863,0,23
678,永盛,加油站,(02)86858070,121.424892,24.983974,0,23
679,紫陽,加油站,(02)26579000,121.583478,25.078381,0,23
680,四海,加油站,(02)86463339,121.621158,25.055135,0,23
681,伯爵,加油站,(02)26434463,121.654932,25.069257,0,23
682,華城,加油站,(02)22128000,121.521961,24.963696,0,23
683,四十張,加油站,(02)22218723,121.476702,24.991776,0,23
684,車子路,加油站,(02)22123214,121.504492,24.957899,0,23
685,芝山,加油站,(02)28320320,121.528698,25.1016931,0,23
686,德安,加油站,(02)22115288,121.501861,24.957445,0,23
687,車容坊(五股),加油站,(02)22930999,121.4386099,25.0785306,0,23
688,欣欣,加油站,(02)86685314,121.517415,24.981779,0,23
689,永錡,加油站,(02)22974554,121.435189,25.057611,0,23
690,濱江,加油站,(02)25057789,121.539409,25.072687,0,23
691,彭厝,加油站,(02)86853033,121.415534,24.971472,0,23
692,東南,加油站,(02)26629588,121.608573,25.000212,0,23
693,永錡保安,加油站,(02)26860590,121.421247,24.996132,0,23
694,新埔,加油站,(02)28013101,121.4521194,25.2254155,0,23
695,嘉尤,加油站,(02)22496811,121.494463,25.007013,0,23
696,光仁,加油站,(02)89530336,121.479137,25.021033,0,23
697,長壽山,加油站,(02)86763209,121.397853,24.941968,0,23
698,嘉樂福,加油站,(02)22235599,121.485483,24.998644,0,23
699,永錡中正,加油站,(02)29032955,121.419651,25.028135,0,23
700,汐平,加油站,(02)26481530,121.683401,25.068552,0,23
701,華中橋,加油站,(02)82451791,121.496451,25.000284,0,23
702,聯新,加油站,(02)29039393,121.417347,25.032446,0,23
703,興化,加油站,(02)29905558,121.465227,25.044631,0,23
704,麗馳,加油站,(02)27925356,121.574975,25.069747,0,23
705,關渡大業,加油站,(02)28983720,121.49857,25.12471,0,23
706,車容坊關渡橋,加油站,(02)26183987,121.447935,25.141827,0,23
707,石牌愛心,加油站,(02)28206995,121.508652,25.112526,0,23
708,東來,加油站,(02)26235566,121.457996,25.173597,0,23
709,全宏,加油站,(02)22231717,121.484931,25.003479,0,23
710,陽光市民,加油站,(02)27529928,121.536998,25.044388,0,23
711,石碇,加油站,(02)26633669,121.644262,25.008717,0,23
712,北基冠軍,加油站,(02)82733837,121.449829,24.992238,0,23
713,清溪,加油站,(02)86768877,121.401548,24.9347609,0,23
714,竹圍,加油站,(02)28097273,121.459353,25.133656,0,23
715,莊敬,加油站,(02)22181270,121.533527,24.981361,0,23
716,全宏二站,加油站,(02)82458299,121.505806,24.999548,0,23
717,正隆,加油站,(02)29529260,121.479038,25.011539,0,23
718,峰沅,加油站,(02)26780368,121.353985,24.957167,0,23
719,聯華三重交流道,加油站,(02)22868822,121.489882,25.075595,0,23
720,聯華五股,加油站,(02)82923939,121.440385,25.087156,0,23
721,北基中和,加油站,(02)22263972,121.4768,25.0055,0,23
722,上順,加油站,(02)26801235,121.406028,24.961549,0,23
723,淳寶,加油站,(02)26900088,121.671889,25.066086,0,23
724,永秦,加油站,(02)26262139,121.449416,25.165484,0,23
725,車容坊三鶯交流道,加油站,(02)86719290,121.356633,24.940927,0,23
726,車容坊五洲,加油站,(02)29047767,121.420577,25.032339,0,23
727,合盟中正,加油站,(02)89811840,121.474285,25.071586,0,23
728,板和,加油站,(02)22261056,121.480401,25.010017,0,23
729,興德,加油站,(02)89923336,121.467977,25.052246,0,23
730,北基蘆洲,加油站,(02)22812383,121.469049,25.077242,0,23
731,車容坊大業,加油站,(02)28927890,121.498532,25.121565,0,23
732,山隆萬大,加油站,(02)23375690,121.500635,25.027303,0,23
733,山隆華中,加油站,(02)23378460,121.498704,25.021918,0,23
734,北基土城交流道,加油站,(02)22682700,121.431713,24.965654,0,23
735,裕進,加油站,(02)86774010,121.340132,24.947659,0,23
736,堤頂,加油站,(02)82878341,121.488812,25.077145,0,23
737,東易,加油站,(02)26572663,121.568527,25.077845,0,23
738,車容坊文化二路,加油站,(02)26089208,121.372254,25.075046,0,23
739,高加,加油站,(02)86686988,121.511922,24.992398,0,23
740,新樹,加油站,(02)29046488,121.440532,25.033583,0,23
741,車容坊鳳鳴,加油站,(02)86777277,121.333308,24.964253,0,23
742,東湖,加油站,(02)26922728,121.617794,25.067427,0,23
743,車容坊元泰,加油站,(02)85317986,121.439616,25.063733,0,23
744,車容坊辛亥,加油站,(02)29339198,121.55827,25.006575,0,23
745,車容坊三重,加油站,(02)29826768,121.475316,25.070837,0,23
746,車容坊佳園,加油站,(02)26687868,121.3855746,24.9492046,0,23
747,柑園北大,加油站,(02)89701079,121.3853078,24.9460652,0,23
748,車容坊板新,加油站,(02)86710879,121.356636,24.940924,0,23
749,降2元,加油站,(02)28285798,121.5111579,25.1073003,0,23
750,建德,加油站,(02)26633377,121.6427751,25.0086632,0,23
751,金滿益,加油站,(02)86318779,121.4570725,25.1644267,0,23
752,山隆興隆,加油站,(02)2999)5499,121.46872,25.044656,0,23
753,中央路,加油站,(02)2268)1105,121.438512,24.967949,0,23
754,北基汐科,加油站,(02)86910670,121.6529037,25.0616866,0,23
755,柑園三峽,加油站,(02)26803001,121.387707,24.9341719,0,23
756,思源,加油站,(02)26882418,121.39525,25.014811,0,23
757,龍形,加油站,(02)86302558,121.436079,25.157154,0,23
758,正洋,加油站,(02)26649616,121.6128653,24.9979005,0,23
759,東林,加油站,(02)86773511,121.3637943,24.9565096,0,23
760,信誠,加油站,(02)82957788,121.440729,25.081967,0,23
761,亞柏土城,加油站,(02)22635800,121.441611,24.983968,0,23
762,車容坊頂埔,加油站,(02)22697176,121.422754,24.9617019,0,23
763,挑戰者永和,加油站,(02)22324282,121.5123502,25.0043571,0,23
764,坤業深坑,加油站,(02)26629988,121.6105722,25.0007625,0,23
765,車容坊城林橋,加油站,(02)86860595,121.4254369,24.9845018,0,23
766,車容坊淡海,加油站,(02)86269668,121.4580692,25.1646446,0,23
767,車容坊中華路,加油站,(02)86865677,121.4201032,24.9818331,0,23
768,車容坊板橋新月橋,加油站,(02)22752159,121.4491867,25.0227031,0,23
769,三花新莊,加油站,(02)29989872,121.459534,25.04145,0,23
770,車容坊碧華,加油站,(02)82870399,121.487633,25.082393,0,23
771,坤業莒光路,加油站,(02)29643298,121.4676553,24.9938965,0,23
772,陽光建北,加油站,(02)25150228,121.5368739,25.0657115,0,23
773,柑園林口二,加油站,(02)86019066,121.3954922,25.0783189,0,23
774,北基嘉和,加油站,(02)82421828,121.5047095,25.0054439,0,23
775,柑園碧安,加油站,(02)22126979,121.5310074,24.9611268,0,23
776,信義,加油站,(03)8887555,121.321388,23.328878,0,23
777,順安,加油站,(03)8611472,121.63393,24.113835,0,23
778,富薪,加油站,(03)8575580,121.589212,23.983077,0,23
779,慶豐昌,加油站,(03)8510661,121.576252,23.975587,0,23
780,崇德盈,加油站,(03)8621626,121.6502,24.156379,0,23
781,民益,加油站,(03)8232851,121.615144,24.007179,0,23
782,水璉,加油站,(03)8601048,121.560695,23.780082,0,23
783,北基花蓮,加油站,(03)8535268,121.582088,23.973764,0,23
784,美得瑞里,加油站,(03)8876663,121.3766285,23.5161645,0,23
785,北基和平路,加油站,(03)8335040,121.604719,23.9726139,0,23
786,大新,加油站,(03)3328297,121.316564,24.991121,0,23
787,鼎益,加油站,(03)3682556,121.282536,24.929518,0,23
788,龍東,加油站,(03)4500981,121.247389,24.914952,0,23
789,士香,加油站,(03)3809358,121.277299,24.896012,0,23
790,坤業,加油站,(03)3502233,121.362781,25.001495,0,23
791,來翔,加油站,(03)3392262,121.314953,24.991002,0,23
792,龍田,加油站,(03)4639368,121.250997,24.95725,0,23
793,萬能,加油站,(03)4532033,121.235537,24.989935,0,23
794,南興,加油站,(03)3891362,121.261631,24.896446,0,23
795,仕博,加油站,(03)3816982,121.22329,25.047147,0,23
796,寶島,加油站,(03)4584566,121.21463,24.933903,0,23
797,松柏,加油站,(03)4278596,121.204607,24.964119,0,23
798,北基正中,加油站,(03)4278886,121.20441,24.965222,0,23
799,祥順,加油站,(03)4686969,121.21297,24.926303,0,23
800,祥益,加油站,(03)4352728,121.246221,24.96037,0,23
801,北基百年,加油站,(03)4992080,121.202879,24.872791,0,23
802,北基東宏,加油站,(03)4395008,121.214347,24.921099,0,23
803,南強,加油站,(03)3209679,121.332944,24.992846,0,23
804,華碩,加油站,(03)3691166,121.278672,24.995223,0,23
805,泉盛,加油站,(03)4797799,121.223829,24.852941,0,23
806,佳園,加油站,(03)3626653,121.325796,24.9620789,0,23
807,山隆大園,加油站,(03)3850738,121.197597,25.069938,0,23
808,山隆觀音,加油站,(03)4736060,121.095705,25.034416,0,23
809,南竹路,加油站,(03)2124771,121.283783,25.0400299,0,23
810,文中北,加油站,(03)3791711,121.270173,24.991761,0,23
811,文一,加油站,(03)3282115,121.380351,25.0514239,0,23
812,車容坊林口,加油站,(03)3185610,121.364616,25.057011,0,23
813,寶慶,加油站,(03)3018833,121.293719,25.011641,0,23
814,八德福林,加油站,(03)3732655,121.305509,24.936876,0,23
815,泉好,加油站,(03)3070788,121.270265,24.887968,0,23
816,山隆蘆竹,加油站,(03)3229609,121.290286,25.051274,0,23
817,山隆新生,加油站,(03)4275107,121.223079,24.962503,0,23
818,世盛,加油站,(03)3137308,121.251593,25.024735,0,23
819,車容坊三富,加油站,(03)4626188,121.249022,24.95797,0,23
820,鼎鈺,加油站,(03)4599768,121.222856,24.940233,0,23
821,萬通,加油站,(03)4908898,121.165197,24.947484,0,23
822,九如,加油站,(03)3806000,121.254951,24.911177,0,23
823,南山路,加油站,(03)3529098,121.289307,25.062004,0,23
824,興榮,加油站,(03)3806378,121.264458,24.903186,0,23
825,內壢,加油站,(03)4352496,121.254378,24.961732,0,23
826,山隆大溪,加油站,(03)3074683,121.264095,24.901517,0,23
827,中正,加油站,(03)3162756,121.293933,25.026623,0,23
828,佳順,加油站,(03)3782918,121.268528,24.984658,0,23
829,力行,加油站,(03)3015322,121.296272,24.998821,0,23
830,協成,加油站,(03)3222895,121.281852,25.0399581,0,23
831,車容坊梅新,加油站,(03)4750393,121.157703,24.908393,0,23
832,宏昇,加油站,(03)4522999,121.22325,24.974335,0,23
833,中山,加油站,(03)4221541,121.223769,24.9561,0,23
834,航空城,加油站,(03)3858179,121.180778,25.064467,0,23
835,百鼎,加油站,(03)3869888,121.207765,25.060151,0,23
836,環中,加油站,(03)4356060,121.2459812,24.9552887,0,23
837,豐興,加油站,(03)4670599,121.2143276,24.9307347,0,23
838,長江,加油站,(03)4923516,121.208583,24.944521,0,23
839,中原,加油站,(03)4613478,121.249025,24.9569,0,23
840,東和平鎮,加油站,(03)4602925,121.230813,24.907038,0,23
841,景福,加油站,(03)4028506,121.209385,24.964061,0,23
842,坤業大園,加油站,(03)3935698,121.260105,25.0737209,0,23
843,柑園楊梅二,加油站,(03)4883526,121.1399322,24.9067823,0,23
844,柑園楊梅,加油站,(03)4882036,121.1508096,24.9074085,0,23
845,民族路,加油站,(03)4949599,121.2030251,24.9573585,0,23
846,經國平鎮,加油站,(03)4609155,121.23061,24.90641,0,23
847,銘豐,加油站,(03)3653897,121.301262,24.934309,0,23
848,東昌,加油站,(03)4090787,121.219198,24.856686,0,23
849,健行,加油站,(03)3163758,121.308793,25.022336,0,23
850,名揚,加油站,(03)3027289,121.283805,25.019157,0,23
851,車容坊桃鶯,加油站,(03)3615156,121.323561,24.975237,0,23
852,瑞龍,加油站,(03)3541226,121.262534,25.116841,0,23
853,全家宏,加油站,(03)3699277,121.288483,24.996745,0,23
854,尚美,加油站,(03)3801269,121.27363,24.892135,0,23
855,北基朝陽,加油站,(03)3312719,121.311115,25.0003029,0,23
856,柑園迴龍二,加油站,(02)82096889,121.399517,25.016551,0,23
857,建國東路,加油站,(03)3590958,121.3252557,24.9872826,0,23
858,大昌八八,加油站,(03)4707513,121.221335,24.866416,0,23
859,福德路,加油站,(03)2182410,121.321289,24.960586,0,23
860,長庚,加油站,(03)3289296,121.385377,25.048799,0,23
861,龍門,加油站,(03)4802548,121.221317,24.869154,0,23
862,友仁,加油站,(03)2115539,121.3655129,25.0583259,0,23
863,日隆,加油站,(03)3352467,121.3136886,25.0023788,0,23
864,長壽路,加油站,(03)3595668,121.3439671,25.0015046,0,23
865,龍壽街,加油站,(03)3697007,121.2675467,24.9871939,0,23
866,經國路,加油站,(03)3562803,121.3003613,25.0315838,0,23
867,華碩大興,加油站,(03)3691166,121.278158,24.9948093,0,23
868,高原交流道,加油站,(03)4116303,121.204889,24.827161,0,23
869,嘉昕,加油站,(03)3680589,121.2976759,24.9408709,0,23
870,龍潭交流道,加油站,(03)4806998,121.2174381,24.8708125,0,23
871,歐盟長興路,加油站,(03)3120861,121.2933165,25.0601994,0,23
872,全宏三站,加油站,(03)3259526,121.3009393,25.0304073,0,23
873,臺北市政府警察局,警察局,02 23313561,121.509813,25.043871,0,23
874,中山分局,警察局,02 25412491,121.522813,25.05259,0,23
875,中山一派出所,警察局,02 25519321,121.521442,25.049989,0,23
876,中山二派出所,警察局,02 25517771,121.522602,25.05764,0,23
877,圓山派出所,警察局,02 25969433,121.523734,25.072715,0,23
878,長春路派出所,警察局,02 25062289,121.536029,25.054639,0,23
879,長安東路派出所,警察局,02 27735207,121.54055,25.048467,0,23
880,民權一派出所,警察局,02 25314672,121.527951,25.059912,0,23
881,建國路派出所,警察局,02 25099774,121.535997,25.067999,0,23
882,大直派出所,警察局,02 25332984,121.544093,25.079529,0,23
883,大安分局,警察局,02 23259850,121.533143,25.037831,0,23
884,羅斯福路派出所,警察局,02 27355761,121.538029,25.011144,0,23
885,臥龍街派出所,警察局,02 27334439,121.551934,25.017953,0,23
886,敦化南路派出所,警察局,02 27710400,121.543927,25.038958,0,23
887,安和路派出所,警察局,02 27025232,121.552088,25.032955,0,23
888,瑞安街派出所,警察局,02 27054164,121.54499,25.031161,0,23
889,和平東路派出所,警察局,02 23218073,121.530495,25.026614,0,23
890,新生南路派出所,警察局,02 23258611,121.534048,25.037737,0,23
891,中正一分局,警察局,02 23716426,121.517355,25.045171,0,23
892,忠孝西路派出所,警察局,02 23142722,121.517355,25.045171,0,23
893,忠孝東路派出所,警察局,02 23218656,121.527146,25.043651,0,23
894,仁愛路派出所,警察局,02 23212067,121.522579,25.038981,0,23
895,介壽路派出所,警察局,02 23113081,121.515483,25.039984,0,23
896,博愛路派出所,警察局,02 23142724,121.511561,25.041714,0,23
897,中正二分局,警察局,02 23751825,121.513978,25.032087,0,23
898,南海路派出所,警察局,02 23752835,121.513978,25.032087,0,23
899,思源街派出所,警察局,02 23650844,121.531905,25.015178,0,23
900,南昌路派出所,警察局,02 23218148,121.516529,25.03232,0,23
901,泉州街派出所,警察局,02 23039915,121.51218,25.024284,0,23
902,廈門街派出所,警察局,02 23684427,121.517823,25.026088,0,23
903,文山二分局,警察局,02 29313843,121.541039,24.992685,0,23
904,萬盛派出所,警察局,02 29312502,121.538926,25.0039,0,23
905,景美派出所,警察局,02 29313459,121.541039,24.992685,0,23
906,興隆派出所,警察局,02 29313842,121.551171,25.001516,0,23
907,文山一分局,警察局,02 29395734,121.563697,24.988731,0,23
908,木新派出所,警察局,02 29372488,121.567291,24.982475,0,23
909,指南派出所,警察局,02 29382712,121.577936,24.987321,0,23
910,萬芳派出所,警察局,02 22391753,121.566815,25.002267,0,23
911,復興派出所,警察局,02 22367140,121.547021,24.986763,0,23
912,木柵派出所,警察局,02 29397141,121.563697,24.988731,0,23
913,南港分局,警察局,02 27839110,121.594705,25.05526,0,23
914,玉成派出所,警察局,02 27886958,121.594705,25.05526,0,23
915,舊莊派出所,警察局,02 27822492,121.622516,25.038474,0,23
916,同德派出所,警察局,02 27867201,121.585609,25.046059,0,23
917,南港派出所,警察局,02 27830476,121.607153,25.05493,0,23
918,內湖分局,警察局,02 27900505,121.589581,25.069257,0,23
919,康樂派出所,警察局,02 26342237,121.61837,25.070356,0,23
920,東湖派出所,警察局,02 26313350,121.612981,25.06743,0,23
921,文德派出所,警察局,02 27944946,121.578918,25.066597,0,23
922,大湖派出所,警察局,02 27909521,121.601355,25.084099,0,23
923,港墘派出所,警察局,02 87518690,121.576678,25.078793,0,23
924,西湖派出所,警察局,02 27987505,121.569315,25.079119,0,23
925,潭美派出所,警察局,02 27917233,121.581579,25.055288,0,23
926,內湖派出所,警察局,02 27931031,121.590131,25.082079,0,23
927,康寧派出所,警察局,02 87920061,121.597515,25.081168,0,23
928,北投分局,警察局,02 28914521,121.50132,25.13337,0,23
929,永明派出所,警察局,02 28213110,121.516564,25.117852,0,23
930,竹子湖派出所,警察局,02 28616082,121.540211,25.167586,0,23
931,公園派出所,警察局,02 28610145,121.548593,25.148796,0,23
932,關渡派出所,警察局,02 28583864,121.465948,25.122971,0,23
933,石牌派出所,警察局,02 28231513,121.512502,25.109891,0,23
934,奇岩派出所,警察局,02 28954410,121.508041,25.127642,0,23
935,大屯派出所,警察局,02 28913971,121.493244,25.145603,0,23
936,光明派出所,警察局,02 28911647,121.504205,25.137329,0,23
937,長安派出所,警察局,02 28912029,121.50132,25.13337,0,23
938,士林分局,警察局,02 28813856,121.526026,25.090731,0,23
939,翠山派出所,警察局,02 28411423,121.560255,25.10811,0,23
940,後港派出所,警察局,02 28829373,121.518034,25.087399,0,23
941,山仔后派出所,警察局,02 28611295,121.54633,25.137264,0,23
942,永福派出所,警察局,02 28616353,121.552277,25.118376,0,23
943,溪山派出所,警察局,02 28411110,121.584492,25.119796,0,23
944,芝山岩派出所,警察局,02 28813194,121.537858,25.101111,0,23
945,天母派出所,警察局,02 28714110,121.532944,25.125089,0,23
946,蘭雅派出所,警察局,02 28315001,121.524724,25.106641,0,23
947,社子派出所,警察局,02 28122720,121.505538,25.089656,0,23
948,文林派出所,警察局,02 28812211,121.526026,25.090731,0,23
949,信義分局,警察局,02 27234739,121.567689,25.033153,0,23
950,六張犁派出所,警察局,02 27355068,121.556239,25.027408,0,23
951,吳興街派出所,警察局,02 27398997,121.563889,25.026609,0,23
952,福德街派出所,警察局,02 27273424,121.576148,25.038559,0,23
953,五分埔派出所,警察局,02 27653349,121.575846,25.045664,0,23
954,三張犁派出所,警察局,02 27295561,121.567689,25.033153,0,23
955,松山分局,警察局,02 27782081,121.547734,25.051549,0,23
956,民有派出所,警察局,02 27123638,121.548059,25.061747,0,23
957,三民派出所,警察局,02 27621708,121.562894,25.059332,0,23
958,東社派出所,警察局,02 27135253,121.551394,25.056722,0,23
959,中崙派出所,警察局,02 27711239,121.545992,25.048395,0,23
960,松山派出所,警察局,02 27670446,121.577153,25.049836,0,23
961,大同分局,警察局,02 25577262,121.515027,25.059341,0,23
962,建成派出所,警察局,02 25585463,121.517335,25.05275,0,23
963,民生西路派出所,警察局,02 25538587,121.512057,25.059229,0,23
964,延平派出所,警察局,02 25564340,121.511721,25.052205,0,23
965,重慶北路派出所,警察局,02 25944741,121.513532,25.075454,0,23
966,寧夏路派出所,警察局,02 25575011,121.515027,25.059341,0,23
967,民族路派出所,警察局,02 25926204,121.513509,25.068789,0,23
968,萬華分局,警察局,02 23140364,121.50287,25.045107,0,23
969,青年路派出所,警察局,02 23054219,121.502137,25.021923,0,23
970,東園街派出所,警察局,02 23033247,121.498197,25.022414,0,23
971,西園路派出所,警察局,02 23032943,121.495607,25.028162,0,23
972,莒光派出所,警察局,02 23064987,121.502684,25.031081,0,23
973,華江派出所,警察局,02 23061531,121.493173,25.034287,0,23
974,大理街派出所,警察局,02 23063468,121.498265,25.034451,0,23
975,康定路派出所,警察局,02 23064226,121.500333,25.035082,0,23
976,龍山派出所,警察局,02 23314823,121.499611,25.038601,0,23
977,西門町派出所,警察局,02 23312212,121.502888,25.045126,0,23
978,新北市政府警察局,警察局,02 80725454,121.458456,25.009864,0,23
979,土城分局,警察局,02  22665929,121.442926,24.973281,0,23
980,土城派出所,警察局,02  22656058,121.442926,24.973281,0,23
981,金城派出所,警察局,02 22633152,121.463521,24.984094,0,23
982,廣福派出所,警察局,02 22701588,121.45598,24.987697,0,23
983,清水派出所,警察局,02  22615090,121.458892,24.981296,0,23
984,頂埔派出所,警察局,02 22681220,121.418274,24.959319,0,23
985,三峽分局,警察局,02  26711796,121.375235,24.930548,0,23
986,吉埔派出所,警察局,02  26711278,121.362294,24.906493,0,23
987,成福派出所,警察局,02  26726097,121.420609,24.929799,0,23
988,圳頭派出所,警察局,02  26741167,121.362294,24.906493,0,23
989,五寮派出所,警察局,02  26720283,121.359326,24.858133,0,23
990,插角派出所,警察局,02  26720121,121.406498,24.870909,0,23
991,湖山派出所,警察局,02  26792474,121.346209,24.973045,0,23
992,鳳鳴派出所,警察局,02  26789110,121.33244,24.96628,0,23
993,二橋派出所,警察局,02  26781225,121.338571,24.942353,0,23
994,橫溪派出所,警察局,02  86761762,121.39547,24.937407,0,23
995,鶯歌分駐所,警察局,02  26792024,121.353509,24.957252,0,23
996,三峽派出所,警察局,02  26711254,121.369657,24.933737,0,23
997,北大派出所,警察局,02 26730561,121.377784,24.944194,0,23
998,三重分局,警察局,02  89818900,121.490038,25.059149,0,23
999,永福派出所,警察局,02  22802065,121.481305,25.076598,0,23
1000,中興橋派出所,警察局,02  29789513,121.490168,25.05049,0,23
1001,光明派出所,警察局,02  29860655,121.487299,25.06085,0,23
1002,慈福派出所,警察局,02  29815111,121.487194,25.082251,0,23
1003,厚德派出所,警察局,02  29712064,121.492105,25.073432,0,23
1004,長泰派出所,警察局,02  29735094,121.497099,25.070775,0,23
1005,三重派出所,警察局,02  29722553,121.50232,25.063972,0,23
1006,大同派出所,警察局,02  29723261,121.496587,25.056761,0,23
1007,二重派出所,警察局,02  29956794,121.475921,25.047532,0,23
1008,大有派出所,警察局,02  89851911,121.475591,25.070268,0,23
1009,重陽派出所,警察局,02  82879727,121.486918,25.088289,0,23
1010,中和分局,警察局,02 22498950,121.501018,24.997929,0,23
1011,中和派出所,警察局,02 22492624,121.50231,24.999686,0,23
1012,安平派出所,警察局,02 29264139,121.511187,24.999975,0,23
1013,秀山派出所,警察局,02 29402114,121.525984,24.990472,0,23
1014,南勢派出所,警察局,02 29419445,121.507936,24.986523,0,23
1015,景安派出所,警察局,02 22436955,121.502678,24.990482,0,23
1016,國光派出所,警察局,02 29569805,121.472611,24.999892,0,23
1017,錦和派出所,警察局,02 22482551,121.495572,24.993664,0,23
1018,中原派出所,警察局,02 22213029,121.488302,25.007621,0,23
1019,積穗派出所,警察局,02 22268955,121.480088,25.004815,0,23
1020,員山派出所,警察局,02 22237295,121.480916,24.998259,0,23
1021,板橋分局,警察局,02 80725454,121.460092,25.012427,0,23
1022,沙崙派出所,警察局,02 26812741,121.430322,24.988407,0,23
1023,大觀派出所,警察局,02 22752477,121.445948,25.001248,0,23
1024,後埔派出所,警察局,02 29615964,121.460866,25.004733,0,23
1025,板橋派出所,警察局,02 29699664,121.456857,25.011005,0,23
1026,信義派出所,警察局,02  29592317,121.461169,24.991411,0,23
1027,樹林分局,警察局,02  26812101,121.418834,24.996917,0,23
1028,柑園派出所,警察局,02  26801075,121.387877,24.954243,0,23
1029,山佳派出所,警察局,02  26806114,121.394865,24.972672,0,23
1030,三多派出所,警察局,02  26894108,121.404654,25.016316,0,23
1031,樹林派出所,警察局,02  26812034,121.425524,24.991944,0,23
1032,彭厝派出所,警察局,02 86868077,121.421662,24.979671,0,23
1033,永和分局,警察局,02  29213119,121.520388,25.009558,0,23
1034,得和派出所,警察局,02  29451969,121.520068,24.997072,0,23
1035,中正橋派出所,警察局,02  29215119,121.520388,25.009558,0,23
1036,新生派出所,警察局,02  29217119,121.510259,25.01259,0,23
1037,秀朗派出所,警察局,02  29251130,121.521061,25.003798,0,23
1038,永和派出所,警察局,02  29214229,121.514525,25.006231,0,23
1039,汐止分局,警察局,02  26412610,121.660235,25.068165,0,23
1040,東山派出所,警察局,02  26415841,121.698913,25.060698,0,23
1041,烘內派出所,警察局,02  26462564,121.646762,25.088444,0,23
1042,長青派出所,警察局,02  26451281,121.605625,25.111155,0,23
1043,橫科派出所,警察局,02  26401237,121.619226,25.047659,0,23
1044,社后派出所,警察局,02  26942819,121.633432,25.063742,0,23
1045,長安派出所,警察局,02  86482618,121.668131,25.07754,0,23
1046,汐止派出所,警察局,02  26412827,121.660278,25.068214,0,23
1047,淡水分局,警察局,02 26224330,121.43664,25.172608,0,23
1048,水源派出所,警察局,02  26200534,121.478061,25.185836,0,23
1049,興仁派出所,警察局,02  26236399,121.451841,25.217746,0,23
1050,賢孝派出所,警察局,02  28011505,121.454693,25.233534,0,23
1051,後厝派出所,警察局,02  26362052,121.469291,25.250972,0,23
1052,興華派出所,警察局,02  26371851,121.502124,25.204689,0,23
1053,三芝分駐所,警察局,02  26362049,121.501124,25.257519,0,23
1054,中正路派出所,警察局,02  26212752,121.436592,25.172819,0,23
1055,中山路派出所,警察局,02  26212753,121.449809,25.165218,0,23
1056,竹圍派出所,警察局,02  28092831,121.459802,25.137438,0,23
1057,水碓派出所,警察局,02  26212491,121.444387,25.178278,0,23
1058,新店分局,警察局,02  29111170,121.549659,24.977576,0,23
1059,龜山派出所,警察局,02  26667560,121.551766,24.902618,0,23
1060,福山派出所,警察局,02  26616260,121.50218,24.778518,0,23
1061,楓子林派出所,警察局,02  26631285,121.642488,25.009812,0,23
1062,石(石曹)派出所,警察局,02  26656343,121.719709,24.902368,0,23
1063,漁光派出所,警察局,02  26656910,121.738911,24.963383,0,23
1064,孝義派出所,警察局,02  26616139,121.5854,24.850908,0,23
1065,雙城派出所,警察局,02  22158566,121.487811,24.951706,0,23
1066,中民派出所,警察局,02  26631254,121.672879,25.008198,0,23
1067,碧山派出所,警察局,02  26651835,121.631814,24.951644,0,23
1068,屈尺派出所,警察局,02  26667439,121.546178,24.922709,0,23
1069,深坑分駐所,警察局,02  26621658,121.615434,25.001596,0,23
1070,忠治派出所,警察局,02  26616533,121.550434,24.884125,0,23
1071,石碇分駐所,警察局,02 26631240,121.65761,24.991349,0,23
1072,信賢派出所,警察局,02  26616400,121.526162,24.838242,0,23
1073,坪林分駐所,警察局,02  26656281,121.711482,24.935697,0,23
1074,青潭派出所,警察局,02  22171146,121.559979,24.954576,0,23
1075,烏來分駐所,警察局,02  26616410,121.552009,24.864773,0,23
1076,闊瀨派出所,警察局,02  26657041,121.771199,24.965622,0,23
1077,安康派出所,警察局,02  22117337,121.514532,24.963679,0,23
1078,豐田派出所,警察局,02  26631975,121.687322,24.974043,0,23
1079,頂城派出所,警察局,02  22118023,121.53435,24.957006,0,23
1080,直潭派出所,警察局,02  26667324,121.534542,24.938514,0,23
1081,江陵派出所,警察局,02  29112165,121.541896,24.978666,0,23
1082,金溪派出所,警察局,02  26656487,121.679115,24.911249,0,23
1083,碧潭派出所,警察局,02  29111665,121.541669,24.967645,0,23
1084,安和派出所,警察局,02  29467780,121.51747,24.97986,0,23
1085,新莊分局,警察局,02  29924034,121.451517,25.036143,0,23
1086,丹鳳派出所,警察局,02  29083119,121.414853,25.02762,0,23
1087,光華派出所,警察局,02  22050330,121.426437,25.017043,0,23
1088,福營派出所,警察局,02  29017434,121.434175,25.032261,0,23
1089,頭前派出所,警察局,02  29921043,121.465797,25.048249,0,23
1090,中港派出所,警察局,02  29922112,121.451962,25.046364,0,23
1091,新莊派出所,警察局,02  29924018,121.464298,25.040548,0,23
1092,新樹派出所,警察局,02 22075386,121.431413,25.00019,0,23
1093,中平派出所,警察局,02  89919755,121.445211,25.051312,0,23
1094,五工派出所,警察局,02  22993050,121.457679,25.063301,0,23
1095,昌平派出所,警察局,02 85227625,121.454906,25.057114,0,23
1096,林口分局,警察局,02  26068455,121.36357,25.070114,0,23
1097,林口派出所,警察局,02  26011630,121.393785,25.077325,0,23
1098,文化派出所,警察局,02  26095766,121.376391,25.07203,0,23
1099,忠孝派出所,警察局,02 26087165,121.36357,25.070114,0,23
1100,下福派出所,警察局,02  26062835,121.2909,25.117369,0,23
1101,瑞平派出所,警察局,02  26052724,121.335844,25.122653,0,23
1102,泰山分駐所,警察局,02  29097947,121.433142,25.061674,0,23
1103,明志派出所,警察局,02  29069881,121.424793,25.043804,0,23
1104,瑞芳分局,警察局,02  24062602,121.807727,25.107605,0,23
1105,九份派出所,警察局,02  24972609,121.843235,25.10962,0,23
1106,吉林派出所,警察局,02  24941534,121.886153,25.002231,0,23
1107,四腳亭派出所,警察局,02  24576947,121.761962,25.104219,0,23
1108,金瓜石派出所,警察局,02  24961528,121.857757,25.108319,0,23
1109,牡丹派出所,警察局,02  24931340,121.849924,25.060128,0,23
1110,澳底派出所,警察局,02  24901074,121.924629,25.056397,0,23
1111,東勢格派出所,警察局,02  24951379,121.749682,25.005113,0,23
1112,柑腳派出所,警察局,02  24931744,121.794541,25.006516,0,23
1113,福隆派出所,警察局,02  24991541,121.944754,25.016501,0,23
1114,鼻頭派出所,警察局,02  24911579,121.916099,25.123747,0,23
1115,瑞濱派出所,警察局,02  24972009,121.819604,25.120999,0,23
1116,猴硐派出所,警察局,02  24972527,121.832914,25.092842,0,23
1117,大寮派出所,警察局,02  24972608,121.787441,25.106876,0,23
1118,卯澳派出所,警察局,02  24991540,121.987883,25.012919,0,23
1119,和美派出所,警察局,02  24901504,121.913613,25.082961,0,23
1120,太平派出所,警察局,02  24933317,121.825826,24.971551,0,23
1121,貢寮分駐所,警察局,02  24941304,121.910004,25.021932,0,23
1122,十分派出所,警察局,02  24958128,121.778833,25.045632,0,23
1123,平溪分駐所,警察局,02  24951063,121.738425,25.026209,0,23
1124,平林派出所,警察局,02  24931794,121.833123,25.030241,0,23
1125,雙溪分駐所,警察局,02  24931059,121.865273,25.035851,0,23
1126,水湳洞派出所,警察局,02  24961529,121.861926,25.12162,0,23
1127,瑞芳派出所,警察局,02  24972141,121.807727,25.107605,0,23
1128,蘆洲分局,警察局,02  22810555,121.460907,25.085415,0,23
1129,延平派出所,警察局,02  82821991,121.461484,25.081745,0,23
1130,更寮派出所,警察局,02  29711126,121.458423,25.077924,0,23
1131,成州派出所,警察局,02  22921296,121.45161,25.101473,0,23
1132,龍源派出所,警察局,02  26182245,121.451279,25.132293,0,23
1133,五股分駐所,警察局,02  22916948,121.436811,25.083508,0,23
1134,八里分駐所,警察局,02  26101315,121.397527,25.145974,0,23
1135,三民派出所,警察局,02  22823775,121.460907,25.085415,0,23
1136,蘆洲派出所,警察局,02  22813358,121.472735,25.081959,0,23
1137,德音派出所,警察局,02  82923789,121.430461,25.071275,0,23
1138,集賢派出所,警察局,02  82832110,121.481697,25.084966,0,23
1139,金山分局,警察局,02  24986532,121.640696,25.220338,0,23
1140,中角派出所,警察局,02  24982136,121.630742,25.263551,0,23
1141,崁腳派出所,警察局,02  24922740,121.650779,25.160397,0,23
1142,重光派出所,警察局,02  24080470,121.603732,25.215951,0,23
1143,乾華派出所,警察局,02  26381274,121.608433,25.279795,0,23
1144,野柳派出所,警察局,02  24922510,121.685015,25.20381,0,23
1145,老梅派出所,警察局,02  26381253,121.54558,25.288991,0,23
1146,大鵬派出所,警察局,02  24982475,121.646699,25.212442,0,23
1147,石門分駐所,警察局,02  26381244,121.567419,25.29081,0,23
1148,金山派出所,警察局,02  24982009,121.640696,25.220338,0,23
1149,萬里分駐所,警察局,02  24922122,121.689572,25.178019,0,23
1150,海山分局,警察局,02  29640322,121.470005,25.011505,0,23
1151,海山派出所,警察局,02  29574370,121.470005,25.011505,0,23
1152,新海派出所,警察局,02  22586867,121.459954,25.024044,0,23
1153,埔墘派出所,警察局,02  29616814,121.479588,25.018712,0,23
1154,江翠派出所,警察局,02  22521225,121.46986,25.030303,0,23
1155,文聖派出所,警察局,02 22583956,121.477388,25.026863,0,23
1156,桃園市政府警察局,警察局,03 3334400,121.302037,24.993357,0,23
1157,桃園分局,警察局,03 3323811,121.298954,25.000228,0,23
1158,大樹派出所,警察局,03 3622987,121.320215,24.977993,0,23
1159,埔子派出所,警察局,03 3353692,121.298954,25.000228,0,23
1160,青溪派出所,警察局,03 3332742,121.314322,24.998104,0,23
1161,中路派出所,警察局,03 3578385,121.299721,24.993245,0,23
1162,景福派出所,警察局,03 3578385,121.309097,24.992644,0,23
1163,武陵派出所,警察局,03 3364224,121.312224,24.990036,0,23
1164,同安派出所,警察局,03 3568289,121.3005,25.028042,0,23
1165,龍安派出所,警察局,03 3601975,121.281049,24.990632,0,23
1166,大園分局,警察局,03 3862009,121.195865,25.063448,0,23
1167,潮音派出所,警察局,03 3862314,121.171297,25.081155,0,23
1168,觀音分駐所,警察局,03 4732025,121.082202,25.036462,0,23
1169,草漯派出所,警察局,03 4830301,121.143011,25.047257,0,23
1170,新坡派出所,警察局,03 4981001,121.136236,25.012628,0,23
1171,竹圍派出所,警察局,03 3835089,121.243761,25.103973,0,23
1172,埔心派出所,警察局,03 3811684,121.224298,25.054319,0,23
1173,大園派出所,警察局,03 3862804,121.195865,25.063448,0,23
1174,三菓派出所,警察局,03 3936118,121.257231,25.073179,0,23
1175,蘆竹分局,警察局,03 2220307,121.293161,25.047236,0,23
1176,南崁派出所,警察局,03 3223981,121.289955,25.053488,0,23
1177,大竹派出所,警察局,03 3232704,121.259477,25.024205,0,23
1178,南竹派出所,警察局,03 3121090,121.284793,25.041373,0,23
1179,外社派出所,警察局,03 3241749,121.304183,25.083491,0,23
1180,大溪分局,警察局,03 3887643,121.295067,24.85784,0,23
1181,復興分駐所,警察局,03 3822604,121.350988,24.814181,0,23
1182,羅浮派出所,警察局,03 3822606,121.365654,24.799369,0,23
1183,榮華派出所,警察局,03 3821016,121.347571,24.739211,0,23
1184,巴陵派出所,警察局,03 3912180,121.398612,24.685985,0,23
1185,奎輝派出所,警察局,03 3822960,121.335106,24.795972,0,23
1186,三光派出所,警察局,03 3912258,121.367311,24.672374,0,23
1187,光華派出所,警察局,03 3912253,121.399218,24.655407,0,23
1188,霞雲派出所,警察局,03 3822607,121.383876,24.816609,0,23
1189,長興派出所,警察局,03 3822961,121.307097,24.799637,0,23
1190,溪內派出所,警察局,03 3822958,121.367974,24.803389,0,23
1191,三元派出所,警察局,03 3801040,121.265305,24.880634,0,23
1192,圳頂派出所,警察局,03 3801287,121.283753,24.904985,0,23
1193,內柵派出所,警察局,03 3883849,121.281231,24.859351,0,23
1194,中新派出所,警察局,03 3801853,121.318534,24.930391,0,23
1195,百吉派出所,警察局,03 3885884,121.309299,24.825121,0,23
1196,三民派出所,警察局,03 3825605,121.331039,24.832281,0,23
1197,三層派出所,警察局,03 3882349,121.286554,24.849231,0,23
1198,永福派出所,警察局,03 3885802,121.324099,24.894203,0,23
1199,南雅派出所,警察局,03 3883720,121.288686,24.879617,0,23
1200,福安派出所,警察局,03 3888767,121.286523,24.849262,0,23
1201,中壢分局,警察局,03 4221460,121.222381,24.95409,0,23
1202,文化派出所,警察局,03 4528348,121.245265,24.978988,0,23
1203,仁愛派出所,警察局,03 4563524,121.25594,24.954868,0,23
1204,興國派出所,警察局,03 4258325,121.208702,24.960593,0,23
1205,龍興派出所,警察局,03 4285776,121.234541,24.938492,0,23
1206,大崙派出所,警察局,03 4982260,121.180998,24.990245,0,23
1207,中福派出所,警察局,03 4523093,121.233433,24.971806,0,23
1208,內壢派出所,警察局,03 4553845,121.255749,24.972208,0,23
1209,普仁派出所,警察局,03 4562912,121.243164,24.949288,0,23
1210,中壢派出所,警察局,03 4222030,121.222381,24.95409,0,23
1211,自強派出所,警察局,03 2854333,121.259148,24.968785,0,23
1212,青埔派出所,警察局,03 4531468,121.210785,25.013655,0,23
1213,楊梅分局,警察局,03 4755749,121.146089,24.90681,0,23
1214,埔頂派出所,警察局,03 4772044,121.118706,24.949554,0,23
1215,幼獅派出所,警察局,03 4643521,121.174632,24.926612,0,23
1216,上湖派出所,警察局,03 4721721,121.094882,24.912627,0,23
1217,新屋分駐所,警察局,03 4772014,121.106543,24.972651,0,23
1218,永安派出所,警察局,03 4861092,121.04485,24.987567,0,23
1219,大坡派出所,警察局,03 4768410,121.038001,24.959747,0,23
1220,富岡派出所,警察局,03 4721794,121.081828,24.935541,0,23
1221,草湳派出所,警察局,03 4826278,121.183608,24.918609,0,23
1222,楊梅派出所,警察局,03 4782007,121.146089,24.90681,0,23
1223,平鎮分局,警察局,03 4390218,121.207522,24.913083,0,23
1224,北勢派出所,警察局,03 4282206,121.220818,24.941926,0,23
1225,宋屋派出所,警察局,03 4938381,121.206198,24.942681,0,23
1226,平鎮派出所,警察局,03 4391280,121.207522,24.913083,0,23
1227,建安派出所,警察局,03 4502331,121.231126,24.909181,0,23
1228,龍岡派出所,警察局,03 4503245,121.247301,24.923915,0,23
1229,龜山分局,警察局,03 3292701,121.337968,24.991464,0,23
1230,龜山派出所,警察局,03 3202554,121.338881,24.995314,0,23
1231,大林派出所,警察局,03 3500070,121.332334,24.988977,0,23
1232,大坑派出所,警察局,03 3251310,121.314653,25.045281,0,23
1233,大埔派出所,警察局,03 3291735,121.381717,25.05333,0,23
1234,迴龍派出所,警察局,02 82006815,121.405421,25.01909,0,23
1235,坪頂派出所,警察局,03 3282570,121.356906,25.055493,0,23
1236,大華派出所,警察局,03 3975557,121.365456,25.051865,0,23
1237,八德分局,警察局,03 3731907,121.309067,24.938235,0,23
1238,八德派出所,警察局,03 3682802,121.284814,24.929664,0,23
1239,廣興派出所,警察局,03 3775127,121.283772,24.95018,0,23
1240,四維派出所,警察局,03 3662771,121.302802,24.955915,0,23
1241,高明派出所,警察局,03 3771790,121.278718,24.96479,0,23
1242,大安派出所,警察局,03 3644106,121.324827,24.970389,0,23
1243,龍潭分局,警察局,03 4890831,121.207523,24.868667,0,23
1244,三和派出所,警察局,03 4794384,121.175082,24.850447,0,23
1245,高平派出所,警察局,03 4717204,121.206981,24.835815,0,23
1246,石門派出所,警察局,03 4712021,121.241269,24.842711,0,23
1247,中興派出所,警察局,03 4797497,121.234345,24.872618,0,23
1248,龍潭派出所,警察局,03 4792002,121.220251,24.870229,0,23
1249,聖亭派出所,警察局,03 4891110,121.207523,24.868667,0,23
1250,新竹縣政府警察局,警察局,03 5513523,121.011263,24.826934,0,23
1251,竹東分局,警察局,03 5962081,121.086743,24.737365,0,23
1252,竹東派出所,警察局,03 5962057,121.086743,24.737365,0,23
1253,五峰分駐所,警察局,03 5851029,121.119821,24.631761,0,23
1254,羅山派出所,警察局,03 5851214,121.147753,24.624747,0,23
1255,茅圃派出所,警察局,03 5851149,121.103073,24.615848,0,23
1256,桃山派出所,警察局,03 5856043,121.108905,24.596464,0,23
1257,雲山派出所,警察局,03 5856689,121.089544,24.565062,0,23
1258,花園派出所,警察局,03 5851147,121.151098,24.646037,0,23
1259,寶山分駐所,警察局,03 5204139,120.990855,24.765428,0,23
1260,上坪派出所,警察局,03 5961744,121.120485,24.664076,0,23
1261,新城派出所,警察局,03 5762353,120.966275,24.732829,0,23
1262,楓橋派出所,警察局,03 5761140,121.027961,24.733645,0,23
1263,富興派出所,警察局,03 5806584,120.987902,24.686885,0,23
1264,二重埔派出所,警察局,03 5823504,121.056894,24.766166,0,23
1265,北埔分駐所,警察局,03 5802214,121.057079,24.698969,0,23
1266,峨眉分駐所,警察局,03 5800344,121.021721,24.688201,0,23
1267,下公館派出所,警察局,03 5948392,121.098534,24.723408,0,23
1268,竹北分局,警察局,03 5552029,121.003416,24.829098,0,23
1269,豐田派出所,警察局,03 5564768,120.964138,24.842704,0,23
1270,鳳岡派出所,警察局,03 5561769,120.963482,24.861062,0,23
1271,六家派出所,警察局,03 6580308,121.03,24.822371,0,23
1272,竹北派出所,警察局,03 5552031,121.004991,24.838395,0,23
1273,三民派出所,警察局,03 5556270,121.011119,24.833505,0,23
1274,高鐵派出所,警察局,03 6578272,121.03825,24.805024,0,23
1275,新湖分局,警察局,03 5902615,121.048014,24.896272,0,23
1276,山崎派出所,警察局,03 5592736,120.99334,24.86814,0,23
1277,新豐分駐所,警察局,03 5594052,120.987062,24.900817,0,23
1278,後湖派出所,警察局,03 5680164,121.00885,24.932118,0,23
1279,湖口分駐所,警察局,03 5997037,121.048014,24.896272,0,23
1280,湖鏡派出所,警察局,03 5690646,121.058793,24.878008,0,23
1281,新工派出所,警察局,03 5981561,121.016989,24.871625,0,23
1282,橫山分局,警察局,03 5931004,121.141571,24.716373,0,23
1283,橫山派出所,警察局,03 5931002,121.14157,24.716382,0,23
1284,芎林分駐所,警察局,03 5924572,121.081009,24.774903,0,23
1285,秀湖派出所,警察局,03 5932812,121.117007,24.734096,0,23
1286,新樂派出所,警察局,03 5841676,121.251344,24.732487,0,23
1287,橫村派出所,警察局,03 5934387,121.117985,24.718464,0,23
1288,玉峰派出所,警察局,03 5847202,121.300669,24.660045,0,23
1289,宇老派出所,警察局,03 5847238,121.281902,24.667658,0,23
1290,秀巒派出所,警察局,03 5847523,121.285453,24.617945,0,23
1291,內灣派出所,警察局,03 5849164,121.175659,24.705975,0,23
1292,那羅派出所,警察局,03 5841682,121.243623,24.679272,0,23
1293,沙坑派出所,警察局,03 5811054,121.162812,24.736723,0,23
1294,梅花派出所,警察局,03 5841681,121.208362,24.678097,0,23
1295,尖石分駐所,警察局,03 5841144,121.201249,24.705401,0,23
1296,泰崗派出所,警察局,03 5847322,121.296281,24.611671,0,23
1297,新埔分局,警察局,03 5882004,121.074292,24.827642,0,23
1298,新埔派出所,警察局,03 5882034,121.071278,24.828042,0,23
1299,錦山派出所,警察局,03 5478174,121.231793,24.772023,0,23
1300,玉山派出所,警察局,03 5478174,121.231793,24.772023,0,23
1301,東安派出所,警察局,03 5872301,121.182294,24.790129,0,23
1302,南華派出所,警察局,03 5872301,121.182294,24.790129,0,23
1303,關西分駐所,警察局,03 5872007,121.172635,24.792243,0,23
1304,褒忠派出所,警察局,03 5882094,121.035926,24.843161,0,23
1305,寶石派出所,警察局,03 5882064,121.077692,24.816419,0,23
1306,照門派出所,警察局,03 5899194,121.11565,24.846726,0,23
1307,石光派出所,警察局,03 5868060,121.128436,24.813971,0,23
1308,坪林派出所,警察局,03 5868060,121.128436,24.813971,0,23
1309,新竹市警察局,警察局,03 5249234,120.968546,24.806374,0,23
1310,第一分局,警察局,03 5222725,120.955494,24.810305,0,23
1311,湳雅派出所,警察局,03 5356710,120.973005,24.819611,0,23
1312,樹林頭派出所,警察局,03 5267652,120.955494,24.810305,0,23
1313,南寮派出所,警察局,03 5362334,120.937454,24.840402,0,23
1314,北門派出所,警察局,03 5222223,120.965059,24.808026,0,23
1315,西門派出所,警察局,03 5222452,120.961211,24.801975,0,23
1316,第二分局,警察局,03 5728750,120.986496,24.801206,0,23
1317,文華派出所,警察局,03 5332120,120.977117,24.814684,0,23
1318,關東橋派出所,警察局,03 5775758,121.018895,24.778914,0,23
1319,埔頂派出所,警察局,03 5773999,121.007868,24.789032,0,23
1320,東勢派出所,警察局,03 5728758,120.986587,24.801493,0,23
1321,東門派出所,警察局,03 5222607,120.96982,24.804122,0,23
1322,第三分局,警察局,03 5380040,120.942624,24.797625,0,23
1323,中華派出所,警察局,03 5302487,120.926194,24.79168,0,23
1324,青草湖派出所,警察局,03 5201563,120.966401,24.774052,0,23
1325,朝山派出所,警察局,03 5373165,120.914693,24.766246,0,23
1326,香山派出所,警察局,03 5386348,120.942624,24.797625,0,23
1327,南門派出所,警察局,03 5222224,120.967811,24.800156,0,23
1328,苗栗縣警察局,警察局,037 321303,120.820115,24.563918,0,23
1329,苗栗分局,警察局,037 320059,120.821027,24.541732,0,23
1330,明德派出所,警察局,037 252538,120.88453,24.584648,0,23
1331,鯉魚派出所,警察局,037 881040,120.743113,24.349751,0,23
1332,福基派出所,警察局,037 225984,120.830723,24.472239,0,23
1333,龍騰派出所,警察局,037 872396,120.749554,24.378483,0,23
1334,雞隆派出所,警察局,037 971012,120.808427,24.428931,0,23
1335,鶴岡派出所,警察局,037 226975,120.832086,24.531959,0,23
1336,頭屋分駐所,警察局,037 253103,120.866145,24.581039,0,23
1337,銅鑼分駐所,警察局,037 981014,120.78722,24.48705,0,23
1338,文山派出所,警察局,037 337127,120.81054,24.565954,0,23
1339,公館分駐所,警察局,037 225683,120.827111,24.503654,0,23
1340,北苗派出所,警察局,037 260344,120.829679,24.57171,0,23
1341,南苗派出所,警察局,037 320367,120.814355,24.550855,0,23
1342,三義分駐所,警察局,037 872003,120.769846,24.412781,0,23
1343,竹南分局,警察局,037 478032,120.878538,24.685148,0,23
1344,大山派出所,警察局,037 431764,120.810975,24.648528,0,23
1345,外埔派出所,警察局,037 431361,120.775334,24.648671,0,23
1346,中港海口派出所,警察局,037 460684,140.192128,23.449113,0,23
1347,聯港派出所,警察局,037 450734,120.760176,24.612387,0,23
1348,談文派出所,警察局,037 622664,120.852006,24.653768,0,23
1349,新港派出所,警察局,037 722474,120.813329,24.611293,0,23
1350,南勢派出所,警察局,037 921445,120.73541,24.574477,0,23
1351,造橋分駐所,警察局,037 563224,120.866793,24.641976,0,23
1352,竹南派出所,警察局,037 474796,120.878538,24.685148,0,23
1353,後龍分駐所,警察局,037 722520,120.786333,24.613634,0,23
1354,大同派出所,警察局,037 581712,120.896914,24.709468,0,23
1355,大湖分局,警察局,037 991006,120.866272,24.422875,0,23
1356,坪林派出所,警察局,04 25921101,120.874819,24.334405,0,23
1357,百壽派出所,警察局,037 931231,120.941004,24.579481,0,23
1358,觀霧派出所,警察局,037 273038,121.113717,24.50639,0,23
1359,大興派出所,警察局,037 992349,120.910822,24.421319,0,23
1360,泰安分駐所,警察局,037 941057,120.907896,24.448063,0,23
1361,汶水派出所,警察局,037 991648,120.875933,24.457691,0,23
1362,獅潭分駐所,警察局,037 931348,120.922076,24.541514,0,23
1363,龍山派出所,警察局,037 941136,120.968452,24.46979,0,23
1364,八卦派出所,警察局,037 941137,120.968452,24.46979,0,23
1365,大湖派出所,警察局,037 991041,120.866272,24.422875,0,23
1366,和興派出所,警察局,037 931230,120.910504,24.514587,0,23
1367,大安派出所,警察局,037 962241,120.94882,24.360022,0,23
1368,校林派出所,警察局,037 951337,120.842513,24.373268,0,23
1369,南湖派出所,警察局,037 991547,120.867312,24.401457,0,23
1370,梅園派出所,警察局,037 962131,120.978973,24.393057,0,23
1371,卓蘭分駐所,警察局,04 25892017,120.825583,24.31271,0,23
1372,象鼻派出所,警察局,037 962243,120.94818,24.360517,0,23
1373,中興派出所,警察局,037 992350,120.920312,24.39404,0,23
1374,通霄分局,警察局,037 752464,120.682198,24.490772,0,23
1375,埔口派出所,警察局,037 792143,120.690991,24.512655,0,23
1376,中和派出所,警察局,037 782254,120.721553,24.446826,0,23
1377,白沙派出所,警察局,037 792134,120.710687,24.564407,0,23
1378,高湖派出所,警察局,037 911414,120.776011,24.522607,0,23
1379,通霄派出所,警察局,037 752001,120.682198,24.490772,0,23
1380,苑裡分駐所,警察局,037 861024,120.653313,24.443752,0,23
1381,西湖分駐所,警察局,037 921031,120.757833,24.558615,0,23
1382,社苓派出所,警察局,037 742508,120.684903,24.389409,0,23
1383,烏眉派出所,警察局,037 753164,120.722552,24.50888,0,23
1384,山腳派出所,警察局,037 740217,120.686234,24.417231,0,23
1385,頭份分局,警察局,037 663306,120.905946,24.693963,0,23
1386,頭份派出所,警察局,037 663004,120.905946,24.693963,0,23
1387,大河派出所,警察局,037 831081,120.948814,24.618026,0,23
1388,蓬萊派出所,警察局,037 822040,120.971753,24.544206,0,23
1389,東河派出所,警察局,037 822094,121.042261,24.599122,0,23
1390,田美派出所,警察局,037 822134,121.01157,24.629089,0,23
1391,陸家派出所,警察局,037 821570,121.027441,24.538718,0,23
1392,南埔派出所,警察局,037 822752,120.978858,24.635428,0,23
1393,斗坪派出所,警察局,037 665770,120.946259,24.680765,0,23
1394,尖山派出所,警察局,037 622763,120.881392,24.66456,0,23
1395,南庄分駐所,警察局,037 822004,120.998945,24.597725,0,23
1396,三灣分駐所,警察局,037 831071,120.956923,24.655005,0,23
1397,臺中市政府警察局,警察局,04 23274440,120.722674,24.201631,0,23
1398,第一分局,警察局,04 22223725,120.675788,24.138271,0,23
1399,西區分駐所,警察局,04 22222632,120.675788,24.138271,0,23
1400,公益派出所,警察局,04 24727640,120.656478,24.145821,0,23
1401,民權派出所,警察局,04 22012710,120.722674,24.201631,0,23
1402,大誠分駐所,警察局,04 22221373,120.679476,24.143991,0,23
1403,繼中派出所,警察局,04 22224119,120.683832,24.137321,0,23
1404,第二分局,警察局,04 22351200,120.68223,24.164981,0,23
1405,永興派出所,警察局,04 22352735,120.68223,24.164981,0,23
1406,立人派出所,警察局,04 22973545,120.668442,24.169853,0,23
1407,育才派出所,警察局,04 22223695,120.684636,24.15046,0,23
1408,文正派出所,警察局,04 22011252,120.674657,24.146994,0,23
1409,公園派出所,警察局,04 22230097,120.685634,24.144112,0,23
1410,第三分局,警察局,04 22220498,120.673459,24.130693,0,23
1411,東區分駐所,警察局,04 22124179,120.69446,24.141312,0,23
1412,合作派出所,警察局,04 23602711,120.692897,24.151821,0,23
1413,立德派出所,警察局,04 22203248,120.689908,24.135764,0,23
1414,勤工派出所,警察局,04 22612716,120.650749,24.112231,0,23
1415,健康派出所,警察局,04 22634622,120.667067,24.119671,0,23
1416,正義派出所,警察局,04 22223319,120.673525,24.130723,0,23
1417,第四分局,警察局,04 23892110,120.643438,24.134218,0,23
1418,黎明派出所,警察局,04 22528219,120.633999,24.155896,0,23
1419,春社派出所,警察局,04 23824719,120.611526,24.135873,0,23
1420,南屯派出所,警察局,04 23824718,120.638308,24.139519,0,23
1421,大墩派出所,警察局,04 24724871,120.649707,24.141987,0,23
1422,第五分局,警察局,04 22427113,120.686531,24.182012,0,23
1423,文昌派出所,警察局,04 22377714,120.680708,24.170403,0,23
1424,東山派出所,警察局,04 22392713,120.740304,24.179045,0,23
1425,四平派出所,警察局,04 24222714,120.682099,24.19259,0,23
1426,水湳派出所,警察局,04 22979937,120.668166,24.178458,0,23
1427,北屯派出所,警察局,04 22332712,120.693838,24.163872,0,23
1428,松安派出所,警察局,04 22461750,120.699868,24.182351,0,23
1429,第六分局,警察局,04 22513284,120.639022,24.1595,0,23
1430,市政派出所,警察局,04 22513312,120.639022,24.1595,0,23
1431,西屯派出所,警察局,04 27012717,120.637955,24.181061,0,23
1432,何安派出所,警察局,04 23149343,120.659118,24.16623,0,23
1433,協和派出所,警察局,04 23593736,120.6089,24.183867,0,23
1434,工業區派出所,警察局,04 23596317,120.60787,24.16877,0,23
1435,永福派出所,警察局,04 24613009,120.610251,24.194333,0,23
1436,大甲分局,警察局,04 26872039,120.6267,24.345389,0,23
1437,大甲派出所,警察局,04 26872047,120.6267,24.345389,0,23
1438,安定派出所,警察局,04 26831522,120.704189,24.345251,0,23
1439,日南派出所,警察局,04 26813700,120.653483,24.37927,0,23
1440,月眉派出所,警察局,04 25562384,120.692182,24.313405,0,23
1441,西岐派出所,警察局,04 26811320,120.628829,24.420013,0,23
1442,泰安派出所,警察局,04 25562340,120.751767,24.324186,0,23
1443,海墘派出所,警察局,04 26875845,120.586705,24.379525,0,23
1444,義里派出所,警察局,04 25562333,120.721737,24.30483,0,23
1445,后里分駐所,警察局,04 25562037,120.71018,24.30517,0,23
1446,外埔分駐所,警察局,04 26832690,120.655429,24.332295,0,23
1447,大安分駐所,警察局,04 26713320,120.587832,24.346268,0,23
1448,和平分局,警察局,04 25942560,120.884083,24.175099,0,23
1449,天輪派出所,警察局,04 25941193,120.926886,24.181677,0,23
1450,德基派出所,警察局,04 25980439,121.209018,24.25753,0,23
1451,環山派出所,警察局,04 25802242,121.295384,24.313727,0,23
1452,雙崎派出所,警察局,04 25911214,120.909257,24.292027,0,23
1453,桃山派出所,警察局,04 25911314,120.935857,24.339875,0,23
1454,大棟派出所,警察局,04 25971106,120.907216,24.240996,0,23
1455,勝光派出所,警察局,04 25901004,121.338722,24.368595,0,23
1456,志良派出所,警察局,04 25901040,121.312765,24.34053,0,23
1457,竹林派出所,警察局,04 25911114,120.924584,24.305138,0,23
1458,梨山分駐所,警察局,04 25989580,121.246707,24.254336,0,23
1459,松茂派出所,警察局,04 25989692,121.264788,24.287094,0,23
1460,和平派出所,警察局,04 25941324,120.869643,24.169203,0,23
1461,谷關派出所,警察局,04 25951114,121.006565,24.202966,0,23
1462,雪山派出所,警察局,04 25883514,121.020213,24.267432,0,23
1463,烏日分局,警察局,04 23369595,120.622755,24.10605,0,23
1464,烏日派出所,警察局,04 23381448,120.622755,24.10605,0,23
1465,龍津派出所,警察局,04 26396084,120.522671,24.201115,0,23
1466,五光派出所,警察局,04 23381960,120.647711,24.092542,0,23
1467,龍井分駐所,警察局,04 26353054,120.545677,24.19177,0,23
1468,溪南派出所,警察局,04 23351676,120.646201,24.056447,0,23
1469,龍東派出所,警察局,04 26397043,120.530428,24.178659,0,23
1470,麗水派出所,警察局,04 26395994,120.514633,24.197871,0,23
1471,犁份派出所,警察局,04 26312719,120.584018,24.182626,0,23
1472,追分派出所,警察局,04 26932108,120.570339,24.121449,0,23
1473,大肚分駐所,警察局,04 26992167,120.544427,24.155008,0,23
1474,瑞井派出所,警察局,04 26910205-6,120.572465,24.152701,0,23
1475,三和派出所,警察局,04 23388011,120.602885,24.108003,0,23
1476,東勢分局,警察局,04 23302139,120.827933,24.258415,0,23
1477,東勢派出所,警察局,04 25873802,120.827933,24.258415,0,23
1478,茅埔派出所,警察局,04 25852472,120.837779,24.219388,0,23
1479,東興派出所,警察局,04 25811476,120.821192,24.206922,0,23
1480,土牛派出所,警察局,04 25817493,120.816174,24.260034,0,23
1481,中坑派出所,警察局,04 25874474,120.854287,24.236295,0,23
1482,永源派出所,警察局,04 25811475,120.792203,24.219356,0,23
1483,石城派出所,警察局,04 25874473,120.789163,24.285093,0,23
1484,福中派出所,警察局,04 25941364,120.864889,24.159173,0,23
1485,石岡分駐所,警察局,04 25722781,120.78097,24.274788,0,23
1486,新社分駐所,警察局,04 25811401,120.809951,24.234079,0,23
1487,清水分局,警察局,04 26222022,120.574085,24.269257,0,23
1488,清水派出所,警察局,04 26222054,120.574085,24.269257,0,23
1489,大楊派出所,警察局,04 26202409,120.63129,24.27319,0,23
1490,大秀派出所,警察局,04 26265404,120.553669,24.280302,0,23
1491,安寧派出所,警察局,04 26560343,120.538411,24.249593,0,23
1492,高美派出所,警察局,04 26113384,120.56253,24.311365,0,23
1493,明秀派出所,警察局,04 26314309,120.571334,24.215978,0,23
1494,光華派出所,警察局,04 26630624,120.567694,24.244207,0,23
1495,清泉派出所,警察局,04 26153884,120.609917,24.246031,0,23
1496,梧棲分駐所,警察局,04 26562860,120.533828,24.254863,0,23
1497,沙鹿分駐所,警察局,04 26625032,120.566401,24.234538,0,23
1498,三田派出所,警察局,04 26222146,120.588192,24.292992,0,23
1499,豐原分局,警察局,04 25224684,120.713565,24.243685,0,23
1500,豐洲派出所,警察局,04 25272585,120.703525,24.261972,0,23
1501,合作派出所,警察局,04 25293134,120.716078,24.242962,0,23
1502,豐東派出所,警察局,04 25286917,120.730474,24.248616,0,23
1503,社口派出所,警察局,04 25625392,120.686456,24.249974,0,23
1504,翁子派出所,警察局,04 25275594,120.736639,24.260686,0,23
1505,神岡分駐所,警察局,04 25622422,120.658849,24.256609,0,23
1506,頂街派出所,警察局,04 20228150,120.723226,24.254875,0,23
1507,豐原派出所,警察局,04 25250092,120.714204,24.248864,0,23
1508,霧峰分局,警察局,04 23302139,120.700173,24.075296,0,23
1509,國光派出所,警察局,04 24180232,120.679481,24.106962,0,23
1510,十九甲派出所,警察局,04 22706613,120.700151,24.102319,0,23
1511,霧峰派出所,警察局,04 23393013,120.700396,24.066867,0,23
1512,萬豐派出所,警察局,04 23302873,120.696599,24.026226,0,23
1513,大里分駐所,警察局,04 24060634,120.676892,24.097986,0,23
1514,吉峰派出所,警察局,04 23334342,120.700173,24.075296,0,23
1515,內新派出所,警察局,04 24875584,120.689821,24.11515,0,23
1516,成功派出所,警察局,04 24969293,120.697711,24.084832,0,23
1517,仁化派出所,警察局,04 24952010,120.71541,24.09464,0,23
1518,四德派出所,警察局,04 23398281,120.666088,24.060172,0,23
1519,太平分局,警察局,04 23938100,120.732368,24.142225,0,23
1520,太平派出所,警察局,04 22780418,120.719393,24.129875,0,23
1521,新平派出所,警察局,04 23912446,120.714108,24.149576,0,23
1522,宏龍派出所,警察局,04 22702700,120.730155,24.109495,0,23
1523,頭汴派出所,警察局,04 22704962,120.750553,24.123657,0,23
1524,坪林派出所,警察局,04 23937396,120.732368,24.142225,0,23
1525,大雅分局,警察局,04 25665216,120.64715,24.224738,0,23
1526,大雅派出所,警察局,04 25680184,120.647143,24.224778,0,23
1527,馬岡派出所,警察局,04 25662064,120.667308,24.21616,0,23
1528,潭子分駐所,警察局,04 25348866,120.704654,24.209754,0,23
1529,潭北派出所,警察局,04 25361651,120.706692,24.21478,0,23
1530,頭家派出所,警察局,04 25353818,120.700189,24.192869,0,23
1531,南投縣政府警察局,警察局,049 2222448,120.678625,23.909765,0,23
1532,南投分局,警察局,049 2222923,120.68323,23.910154,0,23
1533,南投派出所,警察局,049 2222336,120.68323,23.910154,0,23
1534,永和派出所,警察局,049 2271002,120.654138,23.874286,0,23
1535,赤水派出所,警察局,049 2271159,120.629383,23.857244,0,23
1536,崁峰派出所,警察局,049 2582138,120.66122,23.835327,0,23
1537,名間分駐所,警察局,049 2732149,120.7037,23.837704,0,23
1538,新佳派出所,警察局,049 2225160,120.693621,23.878527,0,23
1539,鳳鳴派出所,警察局,049 2291939,120.637992,23.926062,0,23
1540,半山派出所,警察局,049 2251264,120.676151,23.921593,0,23
1541,中興分局,警察局,049 2332585,120.693616,23.950401,0,23
1542,中興派出所,警察局,049 2332544,120.693616,23.950401,0,23
1543,永清派出所,警察局,049 2325314,120.678714,23.941422,0,23
1544,光明派出所,警察局,049 2332586,120.697525,23.938855,0,23
1545,府西派出所,警察局,049 2332557,120.685129,23.957869,0,23
1546,仁愛分局,警察局,049 2802204,121.132413,24.023327,0,23
1547,霧社派出所,警察局,049 2802520,121.132413,24.023327,0,23
1548,翠巒派出所,警察局,049 2960040,121.203554,24.182713,0,23
1549,親愛派出所,警察局,049 2974245,121.108318,23.968288,0,23
1550,春陽派出所,警察局,049 2802396,121.149119,24.027825,0,23
1551,中原派出所,警察局,049 2941073,120.968763,24.063187,0,23
1552,眉原派出所,警察局,049 2941073,120.968763,24.063187,0,23
1553,清流派出所,警察局,049 2941073,120.968763,24.063187,0,23
1554,瑞岩派出所,警察局,049 2955185,121.161308,24.115781,0,23
1555,南豐派出所,警察局,049 2920085,121.065576,24.003383,0,23
1556,榮興派出所,警察局,04 25991064,121.289497,24.223195,0,23
1557,過坑派出所,警察局,049 2925753,120.991848,23.905095,0,23
1558,平靜派出所,警察局,049 2970196,121.192226,24.060144,0,23
1559,靜觀派出所,警察局,049 2970196,121.192226,24.060144,0,23
1560,紅香派出所,警察局,049 2955187,121.176608,24.160364,0,23
1561,松岡派出所,警察局,049 2802395,121.132827,24.023193,0,23
1562,華崗派出所,警察局,049 2960200,121.230012,24.197176,0,23
1563,望洋派出所,警察局,049 2955210,121.189277,24.147858,0,23
1564,廬山派出所,警察局,049 2802521,121.188054,24.022494,0,23
1565,武界派出所,警察局,049 2977001,121.045993,23.916941,0,23
1566,萬豐派出所,警察局,049 2977001,121.045993,23.916941,0,23
1567,翠峰派出所,警察局,049 2802603,121.197124,24.105398,0,23
1568,信義分局,警察局,049 2791260,120.854327,23.697174,0,23
1569,信義派出所,警察局,049 2791261,120.854327,23.697174,0,23
1570,久美派出所,警察局,049 2831472,120.884111,23.619038,0,23
1571,潭南派出所,警察局,049 2741264,120.939726,23.821611,0,23
1572,豐丘派出所,警察局,049 2791583,120.875209,23.670616,0,23
1573,新鄉派出所,警察局,049 2831595,120.868993,23.640277,0,23
1574,東埔派出所,警察局,049 2701321,120.928059,23.561865,0,23
1575,雙龍派出所,警察局,049 2741321,120.947439,23.783461,0,23
1576,羅娜派出所,警察局,049 2831471,120.869585,23.628089,0,23
1577,人倫派出所,警察局,049 2770310,120.896609,23.779506,0,23
1578,青雲派出所,警察局,049 2741142,120.942639,23.794419,0,23
1579,和社派出所,警察局,049 2701304,120.888647,23.595925,0,23
1580,埔里分局,警察局,049 2982429,120.969569,23.966638,0,23
1581,埔里派出所,警察局,049 2998439,120.969569,23.966638,0,23
1582,鯉潭派出所,警察局,049 2987829,120.986765,23.976265,0,23
1583,桃米派出所,警察局,049 2913832,120.929713,23.942554,0,23
1584,合成派出所,警察局,049 2931587,120.924807,24.03669,0,23
1585,梅林派出所,警察局,049 2461041,120.912166,24.057951,0,23
1586,長流派出所,警察局,049 2431040,120.876685,24.072511,0,23
1587,長壽派出所,警察局,049 2721130,120.819482,24.012503,0,23
1588,北山派出所,警察局,049 2451181,120.872901,23.981523,0,23
1589,國姓分駐所,警察局,049 2721232,120.857625,24.04018,0,23
1590,史港派出所,警察局,049 2931692,120.963368,24.000762,0,23
1591,愛蘭派出所,警察局,049 2912334,120.943475,23.974532,0,23
1592,隆生派出所,警察局,049 2904298,120.961647,23.95151,0,23
1593,草屯分局,警察局,049 2362002,120.694203,23.978953,0,23
1594,上林派出所,警察局,049 2329309,120.671863,23.958127,0,23
1595,雙冬派出所,警察局,049 2571222,120.791456,23.983693,0,23
1596,復興派出所,警察局,049 2334783,120.667691,23.975877,0,23
1597,爽文派出所,警察局,049 2601049,120.760344,23.934992,0,23
1598,中寮分駐所,警察局,049 2691330,120.765704,23.879301,0,23
1599,豐城派出所,警察局,049 2552223,120.741894,23.984557,0,23
1600,新光派出所,警察局,049 2321224,120.671017,23.992493,0,23
1601,草屯派出所,警察局,049 2362066,120.681132,23.973497,0,23
1602,中正派出所,警察局,049 2306200,120.686481,23.978873,0,23
1603,竹山分局,警察局,049 2642040,120.682651,23.756989,0,23
1604,竹山派出所,警察局,049 2642012,120.682651,23.756989,0,23
1605,頂林派出所,警察局,049 2648927,120.667487,23.726939,0,23
1606,溪頭派出所,警察局,049 2612173,120.795345,23.673311,0,23
1607,瑞竹派出所,警察局,049 2711710,120.665671,23.662045,0,23
1608,中和派出所,警察局,049 2648620,120.662982,23.763422,0,23
1609,過溪派出所,警察局,049 2648927,120.667487,23.726939,0,23
1610,桶頭派出所,警察局,049 2711044,120.655244,23.647197,0,23
1611,秀峰派出所,警察局,049 2671930,120.77594,23.780126,0,23
1612,竹林派出所,警察局,049 2676142,120.755568,23.726864,0,23
1613,鳳凰派出所,警察局,049 2751102,120.783921,23.734888,0,23
1614,鹿谷分駐所,警察局,049 2752040,120.753971,23.746199,0,23
1615,社寮派出所,警察局,049 2622002,120.722842,23.815242,0,23
1616,延平派出所,警察局,049 2644365,120.705881,23.766727,0,23
1617,杉林派出所,警察局,049 2611307,120.791227,23.639918,0,23
1618,集集分局,警察局,049 2762702,120.786093,23.828348,0,23
1619,集集派出所,警察局,049 2760828,120.786093,23.828348,0,23
1620,郡坑分駐所,警察局,049 2821481,120.859132,23.74419,0,23
1621,東光派出所,警察局,049 2880126,120.966113,23.889923,0,23
1622,五城派出所,警察局,049 2895114,120.888054,23.887842,0,23
1623,車埕派出所,警察局,049 2771154,120.866424,23.834008,0,23
1624,頭社派出所,警察局,049 2861013,120.896072,23.833868,0,23
1625,伊達邵派出所,警察局,049 2850119,120.932243,23.847272,0,23
1626,日月潭派出所,警察局,049 2855121,120.911413,23.86673,0,23
1627,魚池分駐所,警察局,049 2895501,120.936999,23.897027,0,23
1628,水里分駐所,警察局,049 2770117,120.849179,23.811162,0,23
1629,隘寮派出所,警察局,049 781064,120.748745,23.835974,0,23
1630,彰化縣警察局,警察局,04 7619881,120.534337,24.065906,0,23
1631,彰化分局,警察局,04 7222439,120.542861,24.080508,0,23
1632,縣庄派出所,警察局,049 2525151,120.637511,23.98773,0,23
1633,安山派出所,警察局,04 8590056,120.612097,23.993369,0,23
1634,中正派出所,警察局,04 7636696,120.532369,24.082951,0,23
1635,大埔派出所,警察局,04 7113043,120.541379,24.067691,0,23
1636,民生路派出所,警察局,04 7228644,120.542489,24.083445,0,23
1637,民族路派出所,警察局,04 7228433,120.539877,24.073537,0,23
1638,莿桐派出所,警察局,04 7523151,120.524485,24.067442,0,23
1639,泰和派出所,警察局,04 7237560,120.556062,24.095732,0,23
1640,大竹派出所,警察局,04 7381107,120.580582,24.084846,0,23
1641,快官派出所,警察局,04 7381006,120.613335,24.068253,0,23
1642,三家派出所,警察局,04 7862454,120.566496,24.014085,0,23
1643,花壇分駐所,警察局,04 7862014,120.548985,24.028298,0,23
1644,芬園分駐所,警察局,049 2522419,120.628312,24.015201,0,23
1645,八卦山派出所,警察局,04 7284292,120.544546,24.077527,0,23
1646,芳苑分局,警察局,04 8960013,120.347783,23.906674,0,23
1647,漢寶派出所,警察局,04 8991219,120.384811,24.005014,0,23
1648,二林分駐所,警察局,04 8961072,120.369833,23.899568,0,23
1649,萬興派出所,警察局,04 8682039,120.420787,23.954032,0,23
1650,原斗派出所,警察局,04 8902041,120.426313,23.896683,0,23
1651,竹塘分駐所,警察局,04 8972014,120.42771,23.859608,0,23
1652,永安派出所,警察局,04 8972684,120.382524,23.84657,0,23
1653,大城分駐所,警察局,04 8941012,120.322668,23.855413,0,23
1654,西港派出所,警察局,04 8941334,120.289666,23.863102,0,23
1655,芳苑派出所,警察局,04 8983432,120.31571,23.925117,0,23
1656,路上派出所,警察局,04 8983844,120.336734,23.892567,0,23
1657,草湖派出所,警察局,04 8862438,120.382674,23.953441,0,23
1658,王功派出所,警察局,04 8932151,120.341485,23.965901,0,23
1659,北斗分局,警察局,04 8882010,120.523889,23.874776,0,23
1660,北斗派出所,警察局,04 8882604,120.523889,23.874776,0,23
1661,田尾分駐所,警察局,04 8832854,120.526233,23.892519,0,23
1662,海豐派出所,警察局,04 8222160,120.502691,23.917668,0,23
1663,埤頭分駐所,警察局,04 8922041,120.458105,23.891829,0,23
1664,中和派出所,警察局,04 8896155,120.459093,23.846585,0,23
1665,溪州分駐所,警察局,04 8895029,120.493476,23.852895,0,23
1666,三條派出所,警察局,04 8895432,120.49529,23.827432,0,23
1667,成功派出所,警察局,04 8802163,120.547043,23.826157,0,23
1668,和美分局,警察局,04 7552031,120.499625,24.111024,0,23
1669,和美派出所,警察局,04 7554005,120.499625,24.111024,0,23
1670,大霞派出所,警察局,04 7555564,120.503915,24.101602,0,23
1671,嘉犁派出所,警察局,04 7555574,120.516478,24.103204,0,23
1672,中寮派出所,警察局,04 7355184,120.53318,24.105385,0,23
1673,塗厝派出所,警察局,04 7555584,120.505849,24.134189,0,23
1674,伸港分駐所,警察局,04 7982044,120.485779,24.159337,0,23
1675,線西分駐所,警察局,04 7582247,120.470535,24.131056,0,23
1676,鹿港分局,警察局,04 7772001,120.438134,24.059351,0,23
1677,馬鳴派出所,警察局,04 7692082,120.505372,24.051144,0,23
1678,鹿港派出所,警察局,04 7772118,120.433332,24.057116,0,23
1679,和興派出所,警察局,04 7772119,120.436006,24.052847,0,23
1680,海埔派出所,警察局,04 7775565,120.444247,24.084503,0,23
1681,草港派出所,警察局,04 7713404,120.457794,24.106437,0,23
1682,頂番派出所,警察局,04 7711934,120.481352,24.086197,0,23
1683,福興分駐所,警察局,04 7775405,120.450179,24.046886,0,23
1684,洪堀派出所,警察局,04 7704441,120.426687,24.029984,0,23
1685,外中派出所,警察局,04 7792048,120.472055,24.017613,0,23
1686,秀水分駐所,警察局,04 7692964,120.499334,24.029392,0,23
1687,秀安派出所,警察局,04 7692304,120.509086,24.041691,0,23
1688,溪湖分局,警察局,04 8852026,120.48346,23.967002,0,23
1689,溪湖派出所,警察局,04 8852404,120.479514,23.962614,0,23
1690,媽厝派出所,警察局,04 8852814,120.498991,23.940053,0,23
1691,埔心分駐所,警察局,04 8291545,120.541881,23.953012,0,23
1692,舊館派出所,警察局,04 8292854,120.52589,23.948404,0,23
1693,埔鹽分駐所,警察局,04 8653553,120.459922,24.007432,0,23
1694,埔東派出所,警察局,04 8653784,120.47542,23.996849,0,23
1695,員林分局,警察局,04 8320114,120.579523,23.962503,0,23
1696,員林派出所,警察局,04 8320767,120.579523,23.962503,0,23
1697,莒光派出所,警察局,04 8357857,120.561906,23.962491,0,23
1698,永靖分駐所,警察局,04 8221813,120.547362,23.920309,0,23
1699,大村分駐所,警察局,04 8522014,120.54472,23.994997,0,23
1700,林厝派出所,警察局,04 8313012,120.600893,23.943575,0,23
1701,東山派出所,警察局,04 8313374,120.600657,23.963577,0,23
1702,村上派出所,警察局,04 8525474,120.564378,23.989201,0,23
1703,同安派出所,警察局,04 8222159,120.527731,23.924179,0,23
1704,田中分局,警察局,04 8756910,120.574718,23.847495,0,23
1705,田中派出所,警察局,04 8742051,120.584687,23.860227,0,23
1706,二水分駐所,警察局,04 8790015,120.618489,23.81254,0,23
1707,社頭分駐所,警察局,04 8732036,120.588061,23.898579,0,23
1708,朝興派出所,警察局,04 8732174,120.610036,23.903468,0,23
1709,內安派出所,警察局,04 8742008,120.601746,23.852904,0,23
1710,源泉派出所,警察局,04 8792374,120.65553,23.800534,0,23
1711,雲林縣警察局,警察局,05 5338502,120.535937,23.697251,0,23
1712,北港分局,警察局,05 7832015,120.304421,23.580095,0,23
1713,金湖派出所,警察局,05 7971081,120.147488,23.575158,0,23
1714,宏仁派出所,警察局,05 7851885,120.238269,23.606635,0,23
1715,蔦松派出所,警察局,05 7841891,120.227934,23.51277,0,23
1716,土厝派出所,警察局,05 7852884,120.268408,23.569167,0,23
1717,下崙派出所,警察局,05 7991084,120.164449,23.61764,0,23
1718,椬梧派出所,警察局,05 7907180,120.188975,23.546103,0,23
1719,水林分駐所,警察局,05 7853541,120.243791,23.572538,0,23
1720,口湖分駐所,警察局,05 7892014,120.180762,23.585325,0,23
1721,好收派出所,警察局,05 7922194,120.279259,23.599721,0,23
1722,北辰派出所,警察局,05 7834082,120.299071,23.583779,0,23
1723,北港派出所,警察局,05 7832064,120.302121,23.567973,0,23
1724,臺西分局,警察局,05 6982041,120.199538,23.700692,0,23
1725,臺西派出所,警察局,05 6982244,120.199475,23.700633,0,23
1726,崙豐派出所,警察局,05 6901560,120.213237,23.722723,0,23
1727,安南派出所,警察局,05 6991514,120.249782,23.704211,0,23
1728,飛沙派出所,警察局,05 7723235,120.180898,23.637606,0,23
1729,林厝派出所,警察局,05 7721265,120.178211,23.671755,0,23
1730,三崙派出所,警察局,05 7721270,120.157295,23.652543,0,23
1731,東勢分駐所,警察局,05 6991032,120.255324,23.675283,0,23
1732,麥寮分駐所,警察局,05 6932030,120.255816,23.748737,0,23
1733,四湖分駐所,警察局,05 7872031,120.21987,23.637319,0,23
1734,橋頭派出所,警察局,05 6911007,120.274493,23.797083,0,23
1735,斗南分局,警察局,05 5972005,120.472033,23.679508,0,23
1736,四維派出所,警察局,05 5973554,120.481845,23.641604,0,23
1737,新崙派出所,警察局,05 5973524,120.449737,23.678671,0,23
1738,東和派出所,警察局,05 5260642,120.567771,23.684396,0,23
1739,華山派出所,警察局,05 5901317,120.594755,23.595502,0,23
1740,樟湖派出所,警察局,05 5811151,120.642177,23.61694,0,23
1741,怡美派出所,警察局,05 5912060,120.404544,23.637712,0,23
1742,建國派出所,警察局,05 5973724,120.507605,23.65331,0,23
1743,新光派出所,警察局,05 5972540,120.479663,23.69088,0,23
1744,草嶺派出所,警察局,05 5831009,120.69368,23.584243,0,23
1745,永光派出所,警察局,05 5821354,120.553961,23.624367,0,23
1746,大埤分駐所,警察局,05 5912040,120.428697,23.646134,0,23
1747,古坑分駐所,警察局,05 5821324,120.559712,23.654441,0,23
1748,斗南派出所,警察局,05 5972047,120.472033,23.679508,0,23
1749,斗六分局,警察局,05 5322598,120.540377,23.70779,0,23
1750,溝埧派出所,警察局,05 5220334,120.53789,23.675435,0,23
1751,梅林派出所,警察局,05 5572493,120.598044,23.702919,0,23
1752,長安派出所,警察局,05 5517650,120.533819,23.734066,0,23
1753,饒平派出所,警察局,05 5842034,120.519079,23.779617,0,23
1754,重興派出所,警察局,05 5892514,120.577592,23.768029,0,23
1755,長平派出所,警察局,05 5327649,120.504566,23.702823,0,23
1756,莿桐分駐所,警察局,05 5842025,120.50002,23.75929,0,23
1757,林內分駐所,警察局,05 5892404,120.616496,23.758285,0,23
1758,榴中派出所,警察局,05 5573651,120.583157,23.722744,0,23
1759,公正派出所,警察局,05 5323180,120.5541,23.702965,0,23
1760,斗六派出所,警察局,05 5322130,120.545446,23.710854,0,23
1761,西螺分局,警察局,05 5862301,120.461708,23.800835,0,23
1762,和心派出所,警察局,05 5862544,120.442043,23.798681,0,23
1763,吳厝派出所,警察局,05 5862484,120.422841,23.744724,0,23
1764,永定派出所,警察局,05 5982604,120.416737,23.796809,0,23
1765,豐榮派出所,警察局,05 6552159,120.312694,23.792833,0,23
1766,埤源派出所,警察局,05 5862384,120.477082,23.774661,0,23
1767,崙背分駐所,警察局,05 6962016,120.355206,23.762294,0,23
1768,二崙分駐所,警察局,05 5982595,120.413119,23.770666,0,23
1769,油車派出所,警察局,05 5982334,120.390186,23.795237,0,23
1770,西螺派出所,警察局,05 5862014,120.461708,23.800835,0,23
1771,虎尾分局,警察局,05 6331771,120.445381,23.70907,0,23
1772,惠來派出所,警察局,05 6222065,120.488514,23.727803,0,23
1773,埒內派出所,警察局,05 6221995,120.446388,23.72232,0,23
1774,大屯派出所,警察局,05 6651474,120.387789,23.702696,0,23
1775,鹿寮派出所,警察局,05 7983725,120.360319,23.639609,0,23
1776,龍岩派出所,警察局,05 6972544,120.310084,23.719831,0,23
1777,客厝派出所,警察局,05 7882764,120.337222,23.62912,0,23
1778,褒忠分駐所,警察局,05 6972040,120.310552,23.694682,0,23
1779,土庫分駐所,警察局,05 6622514,120.391961,23.677452,0,23
1780,元長分駐所,警察局,05 7882009,120.313003,23.654304,0,23
1781,馬光派出所,警察局,05 6652364,120.356738,23.705854,0,23
1782,虎尾派出所,警察局,05 6322118,120.445381,23.70907,0,23
1783,嘉義縣警察局,警察局,05 3620237,120.294898,23.4586,0,23
1784,中埔分局,警察局,05 2531013,120.523798,23.424704,0,23
1785,中埔派出所,警察局,05 2531203,120.523798,23.424704,0,23
1786,東興派出所,警察局,05 2532050,120.544783,23.360074,0,23
1787,觸口派出所,警察局,05 2591358,120.601165,23.439682,0,23
1788,公田派出所,警察局,05 2586114,120.651996,23.418301,0,23
1789,頂六派出所,警察局,05 2393984,120.491176,23.448281,0,23
1790,同仁派出所,警察局,05 2531201,120.512688,23.405474,0,23
1791,義仁派出所,警察局,05 2531202,120.533114,23.440792,0,23
1792,大埔分駐所,警察局,05 2521034,120.594573,23.299228,0,23
1793,番路分駐所,警察局,05 2591212,120.55474,23.464366,0,23
1794,三和派出所,警察局,05 2309091,120.459086,23.449249,0,23
1795,布袋分局,警察局,05 3472574,120.166636,23.378588,0,23
1796,新店派出所,警察局,05 3426104,120.197714,23.337252,0,23
1797,過路派出所,警察局,05 3436575,120.206708,23.305493,0,23
1798,光榮派出所,警察局,05 3411223,120.247156,23.377419,0,23
1799,義竹分駐所,警察局,05 3412009,120.239364,23.335687,0,23
1800,新塭派出所,警察局,05 3431154,120.159464,23.328031,0,23
1801,景山派出所,警察局,05 3472607,120.187578,23.373771,0,23
1802,過溝派出所,警察局,05 3451064,120.177758,23.41562,0,23
1803,布袋派出所,警察局,05 3472047,120.166522,23.378531,0,23
1804,朴子分局,警察局,05 3793584,120.246368,23.464915,0,23
1805,朴子派出所,警察局,05 3792014,120.246368,23.464915,0,23
1806,雙溪派出所,警察局,05 3794553,120.278476,23.483184,0,23
1807,松梅派出所,警察局,05 3691572,120.255581,23.409839,0,23
1808,六美派出所,警察局,05 3802244,120.288891,23.530587,0,23
1809,北美派出所,警察局,05 7811105,120.303232,23.559526,0,23
1810,永竹派出所,警察局,05 3780845,120.265267,23.527865,0,23
1811,六家派出所,警察局,05 3780843,120.254126,23.505952,0,23
1812,六腳分駐所,警察局,05 3802008,120.29165,23.492926,0,23
1813,龍崗派出所,警察局,05 3451740,120.190891,23.432172,0,23
1814,下楫派出所,警察局,05 3601849,120.151918,23.458973,0,23
1815,三江派出所,警察局,05 3732501,120.172955,23.472853,0,23
1816,東石分駐所,警察局,05 3732240,120.150178,23.455474,0,23
1817,竹村派出所,警察局,05 3693219,120.246966,23.433161,0,23
1818,大鄉派出所,警察局,05 3792091,120.262422,23.45954,0,23
1819,港墘派出所,警察局,05 3793564,120.180677,23.485743,0,23
1820,水上分局,警察局,05 2682025,120.399186,23.432329,0,23
1821,成功派出所,警察局,05 2392064,120.475126,23.43256,0,23
1822,新埤派出所,警察局,05 3612280,120.332851,23.490874,0,23
1823,後堀派出所,警察局,05 3752444,120.342413,23.404917,0,23
1824,下潭派出所,警察局,05 3651303,120.287114,23.375848,0,23
1825,中莊派出所,警察局,05 2890654,120.437951,23.421197,0,23
1826,南新派出所,警察局,05 2373022,120.383199,23.496622,0,23
1827,柳林派出所,警察局,05 2682515,120.417651,23.438209,0,23
1828,南靖派出所,警察局,05 2682364,120.386357,23.414627,0,23
1829,水上派出所,警察局,05 2682264,120.397353,23.432597,0,23
1830,太保分駐所,警察局,05 3711555,120.331873,23.454229,0,23
1831,鹿草分駐所,警察局,05 3752302,120.308286,23.411957,0,23
1832,民雄分局,警察局,05 2262014,120.430343,23.555078,0,23
1833,民雄派出所,警察局,05 2262192,120.430343,23.555078,0,23
1834,豐收派出所,警察局,05 2262732,120.449745,23.562586,0,23
1835,菁埔派出所,警察局,05 2263510,120.398638,23.556542,0,23
1836,溝背派出所,警察局,05 2952902,120.487482,23.613936,0,23
1837,柳溝派出所,警察局,05 2691182,120.423789,23.589862,0,23
1838,安和派出所,警察局,05 3772104,120.314862,23.514054,0,23
1839,南港派出所,警察局,05 7811618,120.31781,23.560888,0,23
1840,月眉派出所,警察局,05 3772524,120.351863,23.522592,0,23
1841,北斗派出所,警察局,05 2213731,120.457062,23.534054,0,23
1842,民興派出所,警察局,05 2213735,120.420655,23.525857,0,23
1843,大美派出所,警察局,05 2952905,120.504866,23.602353,0,23
1844,新港分駐所,警察局,05 3742009,120.34638,23.556626,0,23
1845,溪口分駐所,警察局,05 2691009,120.396075,23.604354,0,23
1846,大林分駐所,警察局,05 2652850,120.455183,23.603022,0,23
1847,埤頭派出所,警察局,05 3760853,120.365458,23.586789,0,23
1848,竹崎分局,警察局,05 2611089,120.550836,23.523036,0,23
1849,竹崎派出所,警察局,05 2611336,120.550836,23.523036,0,23
1850,仁和派出所,警察局,05 2110056,120.49102,23.512073,0,23
1851,龍山派出所,警察局,05 2611256,120.57609,23.518114,0,23
1852,復金派出所,警察局,05 2611254,120.68921,23.464166,0,23
1853,仁壽派出所,警察局,05 2501454,120.643576,23.531622,0,23
1854,中和派出所,警察局,05 2561054,120.696834,23.502103,0,23
1855,太平派出所,警察局,05 2571202,120.602959,23.560912,0,23
1856,瑞里派出所,警察局,05 2501041,120.664771,23.540136,0,23
1857,新美派出所,警察局,05 2513079,120.683838,23.337249,0,23
1858,太和派出所,警察局,05 2661055,120.72131,23.533563,0,23
1859,山美派出所,警察局,05 2586154,120.668264,23.383673,0,23
1860,大南派出所,警察局,05 2621412,120.551683,23.553069,0,23
1861,里佳派出所,警察局,05 2511124,120.72082,23.405516,0,23
1862,阿里山派出所,警察局,05 2679975,120.811736,23.513219,0,23
1863,來吉派出所,警察局,05 2661185,120.740061,23.529491,0,23
1864,內埔派出所,警察局,05 2541040,120.55936,23.484985,0,23
1865,樂野分駐所,警察局,05 2561325,120.698359,23.473109,0,23
1866,鹿滿派出所,警察局,05 2611255,120.532267,23.49786,0,23
1867,達邦分駐所,警察局,05 2511006,120.748968,23.454117,0,23
1868,十字派出所,警察局,05 2511223,120.753738,23.491283,0,23
1869,梅山分駐所,警察局,05 2621003,120.559017,23.581514,0,23
1870,嘉義市政府警察局,警察局,05 2220671,120.45458,23.48141,0,23
1871,第一分局,警察局,05 2348006,120.43165,23.47947,0,23
1872,北鎮派出所,警察局,05 2322732,120.43165,23.47947,0,23
1873,長榮派出所,警察局,05 2222206,120.4431,23.47917,0,23
1874,竹園派出所,警察局,05 2356144,120.43229,23.47293,0,23
1875,八掌派出所,警察局,05 2867110,120.437719,23.461823,0,23
1876,北興派出所,警察局,05 2321294,120.44225,23.48505,0,23
1877,第二分局,警察局,05 2254393,120.45575,23.46389,0,23
1878,興安派出所,警察局,05 2224593,120.45575,23.46389,0,23
1879,長竹派出所,警察局,05 2770641,120.48069,23.48261,0,23
1880,新南派出所,警察局,05 2222731,120.45433,23.47189,0,23
1881,後湖派出所,警察局,05 2762726,120.4505,23.49853,0,23
1882,公園派出所,警察局,05 2783141,120.46308,23.48282,0,23
1883,北門派出所,警察局,05 2782727,120.45207,23.48282,0,23
1884,南門派出所,警察局,05 2222725,120.45542,23.47672,0,23
1885,臺南市政府警察局,警察局,06 6322210,120.316069,23.305412,0,23
1886,第一分局,警察局,06 2684867,120.23221,22.966547,0,23
1887,德高派出所,警察局,06 2693405,120.23221,22.966547,0,23
1888,文化派出所,警察局,06 2907243,120.221145,22.976021,0,23
1889,莊敬派出所,警察局,06 2385398,120.231683,22.996924,0,23
1890,東門派出所,警察局,06 2690098,120.221626,22.982115,0,23
1891,東寧派出所,警察局,06 2375433,120.224143,22.991745,0,23
1892,府東派出所,警察局,06 3316119,120.243074,22.985735,0,23
1893,後甲派出所,警察局,06-2676364,120.235519,22.984786,0,23
1894,第二分局,警察局,06 2139070,120.200507,22.98535,0,23
